rental_id,duration,bike_id,end_rental_date_time,end_station_id,end_station_name,start_rental_date_time,start_station_id,start_station_name,start_longitude,start_latitude,end_longitude,end_latitude,year
85983372,2340,1153,18/04/2019 14:42,692,"Cadogan Close, Victoria Park",18/04/2019 14:03,459,"Gunmakers Lane, Old Ford",-0.03338,51.5352,-0.0289416,51.5421,2019
96879991,720,4236,12/05/2020 14:13,164,"Cleveland Gardens, Bayswater",12/05/2020 14:01,2,"Phillimore Gardens, Kensington",-0.197574,51.4996,-0.183119,51.5156,2020
88636032,5220,4374,04/07/2019 14:53,819,"Belvedere Road 2, South Bank",04/07/2019 13:26,303,"Albert Gate, Hyde Park",-0.158456,51.503,-0.114686,51.5061,2019
90381527,420,3321,21/08/2019 15:13,104,"Crosswall, Tower",21/08/2019 15:06,263,"St. Mary Axe, Aldgate",-0.0806601,51.5142,-0.0771213,51.5116,2019
96615204,1140,17100,02/05/2020 19:54,213,"Wellington Arch, Hyde Park",02/05/2020 19:35,747,"Ormonde Gate, Chelsea",-0.161765,51.488,-0.149569,51.5027,2020
97208991,1500,3595,21/05/2020 21:55,675,"Usk Road, Clapham Junction",21/05/2020 21:30,350,"Queen's Gate, Kensington Gardens",-0.179854,51.5017,-0.182126,51.4635,2020
101035870,720,9152,23/08/2020 12:16,18,"Drury Lane, Covent Garden",23/08/2020 12:04,246,"Berry Street, Clerkenwell",-0.0999941,51.5229,-0.12222,51.5148,2020
99446056,1200,3880,14/07/2020 19:04,692,"Cadogan Close, Victoria Park",14/07/2020 18:44,488,"Reardon Street, Wapping",-0.058681,51.5069,-0.0289416,51.5421,2020
97973666,480,2182,08/06/2020 8:58,278,"Tooley Street, Bermondsey",08/06/2020 8:50,33,"Central House, Aldgate",-0.0678275,51.5168,-0.079621,51.5035,2020
65653610,480,11839,02/06/2017 10:07,36,"De Vere Gardens, Kensington",02/06/2017 9:59,142,"West Cromwell Road, Earl's Court",-0.198287,51.4937,-0.184981,51.5017,2017
98097943,1380,5491,12/06/2020 17:30,45,"Boston Place, Marylebone",12/06/2020 17:07,806,"Handyside Street, King's Cross",-0.12481,51.53724,-0.162298,51.5225,2020
69665245,240,782,22/09/2017 8:42,578,"Hollybush Gardens, Bethnal Green",22/09/2017 8:38,512,"Pritchard's Road, Bethnal Green",-0.06142,51.5321,-0.057133,51.5276,2017
83719045,960,4876,21/01/2019 14:48,804,"Good's Way, King's Cross",21/01/2019 14:32,244,"Earnshaw Street , Covent Garden",-0.128585,51.5161,-0.125079,51.5347,2019
84620299,1140,14616,27/02/2019 7:32,703,"St. Bride Street, Holborn",27/02/2019 7:13,534,"Goldsmith's Row, Haggerston",-0.066035,51.5319,-0.105344,51.5151,2019
94927431,780,15294,08/02/2020 17:32,713,"Hawley Crescent, Camden Town",08/02/2020 17:19,6,"Broadcasting House, Marylebone",-0.144229,51.5181,-0.143261,51.541,2020
88867082,780,2961,10/07/2019 9:15,335,"Tavistock Street, Covent Garden",10/07/2019 9:02,287,"Bedford Way, Bloomsbury",-0.128378,51.5237,-0.120719,51.512,2019
86544759,1620,5400,05/05/2019 13:27,625,"Queen's Circus, Battersea Park",05/05/2019 13:00,780,"Imperial Wharf Station, Sands End",-0.183165,51.4747,-0.149552,51.4776,2019
62875562,300,10012,07/03/2017 11:32,200,"LMU Commercial Road, Whitechapel",07/03/2017 11:27,508,"Fournier Street, Whitechapel",-0.074431,51.5194,-0.066078,51.5149,2017
77680197,1500,11699,06/07/2018 8:51,314,"Tyers Gate, Bermondsey",06/07/2018 8:26,471,"Hewison Street, Old Ford",-0.028155,51.5333,-0.0831594,51.5009,2018
84531951,420,9363,24/02/2019 12:55,653,"Simpson Street, Clapham Junction",24/02/2019 12:48,621,"Wandsworth Town Station, Wandsworth",-0.187427,51.4609,-0.170704,51.4708,2019
72567140,420,7431,12/01/2018 13:04,796,"Coram Street, Bloomsbury",12/01/2018 12:57,20,"Drummond Street , Euston",-0.135273,51.5277,-0.12641,51.524,2018
92369386,360,15143,22/10/2019 17:36,284,"Lambeth North Station, Waterloo",22/10/2019 17:30,437,"Vauxhall Walk, Vauxhall",-0.120903,51.4881,-0.112031,51.4991,2019
91229220,1320,14882,14/09/2019 15:13,459,"Gunmakers Lane, Old Ford",14/09/2019 14:51,816,"Here East South, Queen Elizabeth Olympic Park",-0.022626668,51.54872406,-0.03338,51.5352,2019
99364470,480,3066,12/07/2020 17:26,239,"Warren Street Station, Euston",12/07/2020 17:18,562,"Bury Place, Holborn",-0.12335,51.5175,-0.138019,51.5244,2020
93936921,660,2814,27/12/2019 16:36,273,"Belvedere Road 1, South Bank",27/12/2019 16:25,194,"Hop Exchange, The Borough",-0.0917738,51.5046,-0.114686,51.5061,2019
73969489,300,5849,19/03/2018 18:49,449,"Shadwell Station, Shadwell",19/03/2018 18:44,202,"Leman Street, Aldgate",-0.069542,51.5124,-0.057159,51.5111,2018
99807840,300,15657,23/07/2020 12:31,667,"Shepherd's Bush Road North, Shepherd's Bush",23/07/2020 12:26,566,"Westfield Ariel Way, White City",-0.224103,51.5092,-0.222293,51.5016,2020
86526553,180,6693,04/05/2019 14:03,303,"Albert Gate, Hyde Park",04/05/2019 14:00,191,"Hyde Park Corner, Hyde Park",-0.153521,51.5031,-0.158456,51.503,2019
95026294,900,16484,13/02/2020 9:29,52,"Roscoe Street, St. Luke's",13/02/2020 9:14,324,"Ontario Street, Elephant & Castle",-0.101384,51.4965,-0.0949349,51.523,2020
73196179,540,1268,09/02/2018 13:48,266,"Queen's Gate (North), Kensington",09/02/2018 13:39,307,"Black Lion Gate, Kensington Gardens",-0.187843,51.5099,-0.180246,51.501,2018
64505826,1200,6565,29/04/2017 15:26,564,"Somerset House, Strand",29/04/2017 15:06,314,"Tyers Gate, Bermondsey",-0.0831594,51.5009,-0.117619,51.5099,2017
65898725,960,6827,09/06/2017 18:02,275,"Barbican Centre, Barbican",09/06/2017 17:46,421,"Southwark Station 2, Southwark",-0.105312,51.504,-0.0921764,51.52,2017
83659679,600,16276,18/01/2019 15:44,66,"Holborn Circus, Holborn",18/01/2019 15:34,119,"Bath Street, St. Luke's",-0.0908478,51.5259,-0.108657,51.518,2019
84075911,360,8259,06/02/2019 19:47,645,"Great Suffolk Street, The Borough",06/02/2019 19:41,820,"Victory Place, Walworth",-0.092486949,51.49266501,-0.100292,51.5017,2019
71659600,600,13159,26/11/2017 8:53,164,"Cleveland Gardens, Bayswater",26/11/2017 8:43,164,"Cleveland Gardens, Bayswater",-0.183119,51.5156,-0.183119,51.5156,2017
77159255,360,5922,24/06/2018 12:58,133,"Derry Street, Kensington",24/06/2018 12:52,392,"Imperial College, Knightsbridge",-0.179702,51.4994,-0.191462,51.5014,2018
93470987,420,11947,04/12/2019 11:40,294,"St. George's Square, Pimlico",04/12/2019 11:33,800,"Sopwith Way, Battersea Park",-0.149035,51.4811,-0.135636,51.4882,2019
92730347,1200,182,05/11/2019 8:44,126,"Museum of London, Barbican",05/11/2019 8:24,492,"The Green Bridge, Mile End",-0.03562,51.5247,-0.0964969,51.5178,2019
84662899,540,10120,28/02/2019 9:02,3,"Christopher Street, Liverpool Street",28/02/2019 8:53,465,"Pitfield Street North,Hoxton",-0.08249,51.5356,-0.0846057,51.5213,2019
75463290,120,9024,10/05/2018 17:03,193,"Bankside Mix, Bankside",10/05/2018 17:01,421,"Southwark Station 2, Southwark",-0.105312,51.504,-0.100186,51.5058,2018
93262999,540,7637,26/11/2019 8:56,761,"Humbolt Road, Fulham",26/11/2019 8:47,682,"Crisp Road, Hammersmith",-0.226606,51.4881,-0.211861,51.4832,2019
100281280,360,17260,04/08/2020 10:41,785,"Aquatic Centre, Queen Elizabeth Olympic Park",04/08/2020 10:35,816,"Here East South, Queen Elizabeth Olympic Park",-0.022626668,51.54872406,-0.0105106,51.5409,2020
69737374,2520,6291,24/09/2017 13:08,804,"Good's Way, King's Cross",24/09/2017 12:26,315,"The Tennis Courts, The Regent's Park",-0.153464,51.5254,-0.125079,51.5347,2017
67844830,1140,12710,28/07/2017 15:46,646,"Buckingham Gate, Westminster",28/07/2017 15:27,646,"Buckingham Gate, Westminster",-0.137425,51.4989,-0.137425,51.4989,2017
75007242,1380,7914,26/04/2018 18:49,31,"Fanshaw Street, Hoxton",26/04/2018 18:26,154,"Waterloo Station 3, Waterloo",-0.113864,51.504,-0.0833533,51.5295,2018
68948679,960,5398,30/08/2017 12:53,174,"Strand, Strand",30/08/2017 12:37,506,"Bell Lane, Liverpool Street",-0.075855,51.5175,-0.115163,51.5125,2017
78192850,16440,7395,18/07/2018 17:03,271,"London Zoo,  The Regent's Park",18/07/2018 12:29,153,"Bayswater Road, Hyde Park",-0.174293,51.5118,-0.156285,51.5358,2018
91592577,1200,15078,25/09/2019 7:43,58,"New Inn Yard, Shoreditch",25/09/2019 7:23,361,"Waterloo Station 2, Waterloo",-0.113864,51.504,-0.0792481,51.5245,2019
96605163,720,14127,02/05/2020 16:20,432,"Exhibition Road Museums, South Kensington",02/05/2020 16:08,658,"Ethelburga Estate, Battersea Park",-0.164786,51.4773,-0.173894,51.497,2020
100181589,1440,1183,01/08/2020 20:29,819,"Belvedere Road 2, South Bank",01/08/2020 20:05,310,"Black Prince Road, Vauxhall",-0.116912,51.4909,-0.114686,51.5061,2020
97031516,12120,6313,17/05/2020 17:58,642,"Fawcett Close, Battersea",17/05/2020 14:36,750,"Culvert Road, Battersea",-0.15785,51.4711,-0.174486,51.4692,2020
75590090,1020,5225,14/05/2018 17:30,651,"Thorndike Close, West Chelsea",14/05/2018 17:13,651,"Thorndike Close, West Chelsea",-0.183854,51.4809,-0.183854,51.4809,2018
69615377,960,1817,20/09/2017 17:55,154,"Waterloo Station 3, Waterloo",20/09/2017 17:39,73,"Old Street Station, St. Luke's",-0.0884862,51.5257,-0.113864,51.504,2017
87421227,540,5942,31/05/2019 10:49,196,"Union Street, The Borough",31/05/2019 10:40,427,"Cheapside, Bank",-0.0929403,51.514,-0.0984977,51.5037,2019
63543294,720,939,30/03/2017 18:18,154,"Waterloo Station 3, Waterloo",30/03/2017 18:06,15,"Great Russell Street, Bloomsbury",-0.127854,51.5177,-0.113864,51.504,2017
82259534,1020,15610,14/11/2018 13:44,217,"Wormwood Street, Liverpool Street",14/11/2018 13:27,762,"Storey's Gate, Westminster",-0.129699,51.5007,-0.0824224,51.5162,2018
96037443,960,3871,06/04/2020 11:46,213,"Wellington Arch, Hyde Park",06/04/2020 11:30,646,"Buckingham Gate, Westminster",-0.137425,51.4989,-0.149569,51.5027,2020
89841704,480,2746,05/08/2019 10:05,218,"St. Luke's Church, Chelsea",05/08/2019 9:57,700,"Battersea Church Road, Battersea",-0.174347,51.477,-0.170194,51.4897,2019
68933054,2716,10630,29/08/2017 20:36,111,"Park Lane , Hyde Park",29/08/2017 19:51,404,"Palace Gate, Kensington Gardens",-0.1844,51.502,-0.157276,51.51,2017
81409292,300,14090,16/10/2018 20:04,158,"Trebovir Road, Earl's Court",16/10/2018 19:59,2,"Phillimore Gardens, Kensington",-0.197574,51.4996,-0.19617,51.4909,2018
92125480,420,16961,14/10/2019 8:58,658,"Ethelburga Estate, Battersea Park",14/10/2019 8:51,638,"Falcon Road, Clapham Junction",-0.169821,51.4666,-0.164786,51.4773,2019
65433274,2280,6520,27/05/2017 14:00,783,"Monier Road, Hackney Wick",27/05/2017 13:22,816,"Here East South, Queen Elizabeth Olympic Park",-0.022626668,51.54872406,-0.0216304,51.5403,2017
88012011,1020,16123,18/06/2019 15:03,185,"Alderney Street, Pimlico",18/06/2019 14:46,260,"Broadwick Street, Soho",-0.135581,51.5137,-0.140741,51.4881,2019
74675600,1320,3419,18/04/2018 16:19,779,"Houndsditch, Aldgate",18/04/2018 15:57,71,"Newgate Street , St. Paul's",-0.0988509,51.5154,-0.077179,51.5144,2018
95421042,300,5760,02/03/2020 18:22,202,"Leman Street, Aldgate",02/03/2020 18:17,46,"Nesham Street, Wapping",-0.06691,51.5071,-0.069542,51.5124,2020
83337234,420,6046,05/01/2019 11:17,132,"Bethnal Green Road, Shoreditch",05/01/2019 11:10,444,"Bethnal Green Garden, Bethnal Green",-0.055312,51.5257,-0.0747549,51.5236,2019
67469798,480,12383,18/07/2017 6:59,58,"New Inn Yard, Shoreditch",18/07/2017 6:51,253,"Shoreditch Park, Hoxton",-0.0863797,51.534,-0.0792481,51.5245,2017
85647290,1560,449,06/04/2019 14:19,166,"Seville Street, Knightsbridge",06/04/2019 13:53,335,"Tavistock Street, Covent Garden",-0.120719,51.512,-0.159237,51.5019,2019
69072864,420,38,03/09/2017 2:00,172,"Sumner Place, South Kensington",03/09/2017 1:53,757,"Harcourt Terrace, West Brompton",-0.187405,51.488,-0.173716,51.4912,2017
79614974,540,6777,24/08/2018 9:15,108,"Abbey Orchard Street, Westminster",24/08/2018 9:06,270,"Kennington Lane Rail Bridge, Vauxhall",-0.122492,51.4863,-0.132102,51.4981,2018
90724392,120,7531,30/08/2019 19:12,443,"Philpot Street, Whitechapel",30/08/2019 19:10,206,"New Road 1 , Whitechapel",-0.06275,51.5181,-0.058641,51.5153,2019
69945765,4860,9268,30/09/2017 14:57,783,"Monier Road, Hackney Wick",30/09/2017 13:36,692,"Cadogan Close, Victoria Park",-0.0289416,51.5421,-0.0216304,51.5403,2017
92672048,480,8798,02/11/2019 18:27,420,"Southwark Station 1, Southwark",02/11/2019 18:19,156,"New Kent Road, The Borough",-0.0929212,51.4944,-0.105312,51.504,2019
96860262,1260,17184,11/05/2020 8:43,495,"Bow Church Station, Bow",11/05/2020 8:22,132,"Bethnal Green Road, Shoreditch",-0.0747549,51.5236,-0.018703,51.5282,2020
88713920,540,13005,06/07/2019 11:00,73,"Old Street Station, St. Luke's",06/07/2019 10:51,204,"Margery Street, Clerkenwell",-0.112433,51.5266,-0.0884862,51.5257,2019
76847909,2220,14518,16/06/2018 14:05,395,"Cadogan Gardens, Chelsea",16/06/2018 13:28,280,"Royal Avenue 2, Chelsea",-0.162727,51.4899,-0.159919,51.4925,2018
82486823,360,7673,23/11/2018 23:43,330,"Eastbourne Mews, Paddington",23/11/2018 23:37,182,"Bell Street , Marylebone",-0.165843,51.522,-0.179135,51.5164,2018
72995349,720,7118,31/01/2018 16:52,135,"Clerkenwell Green, Clerkenwell",31/01/2018 16:40,717,"Dunston Road , Haggerston",-0.0758857,51.5366,-0.104709,51.5233,2018
70610948,840,7750,20/10/2017 9:27,799,"Kings Gate House, Westminster",20/10/2017 9:13,441,"Sail Street, Vauxhall",-0.114605,51.4957,-0.137599,51.4977,2017
78410179,300,13112,23/07/2018 17:13,282,"Royal London Hospital, Whitechapel",23/07/2018 17:08,104,"Crosswall, Tower",-0.0771213,51.5116,-0.0596421,51.5191,2018
85538428,840,5189,02/04/2019 9:18,354,"Northumberland Avenue, Strand",02/04/2019 9:04,580,"Doddington Grove, Kennington",-0.102996,51.4869,-0.123702,51.5068,2019
70832101,300,11025,27/10/2017 15:06,107,"Finsbury Leisure Centre, St. Luke's",27/10/2017 15:01,140,"Finsbury Square , Moorgate",-0.0856342,51.521,-0.0963176,51.526,2017
63560572,660,2021,31/03/2017 9:10,299,"Vincent Square, Westminster",31/03/2017 8:59,664,"Austin Road, Battersea Park",-0.155443,51.4744,-0.136929,51.494,2017
66969540,840,1083,05/07/2017 18:29,49,"Curzon Street, Mayfair",05/07/2017 18:15,353,"Greycoat Street , Westminster",-0.134234,51.4946,-0.145904,51.5071,2017
91692088,1080,15266,28/09/2019 12:02,261,"Princes Square, Bayswater",28/09/2019 11:44,643,"All Saints' Road, Portobello",-0.204764,51.519,-0.191351,51.5135,2019
78789299,360,6027,01/08/2018 22:39,211,"Cadogan Place, Knightsbridge",01/08/2018 22:33,220,"Chelsea Green, Chelsea",-0.166485,51.4907,-0.158106,51.4946,2018
87206984,720,1317,24/05/2019 20:05,95,"Aldersgate Street, Barbican",24/05/2019 19:53,233,"Pall Mall East, West End",-0.1307,51.5078,-0.0973402,51.5208,2019
79283440,660,11059,15/08/2018 8:39,122,"Norton Folgate, Liverpool Street",15/08/2018 8:28,552,"Watney Street, Shadwell",-0.056667,51.5115,-0.0788698,51.5211,2018
94601677,600,5514,27/01/2020 17:24,14,"Belgrove Street , King's Cross",27/01/2020 17:14,71,"Newgate Street , St. Paul's",-0.0988509,51.5154,-0.123617,51.5299,2020
94349617,660,4718,17/01/2020 8:38,606,"Addison Road, Holland Park",17/01/2020 8:27,633,"Vereker Road, West Kensington",-0.209379,51.4896,-0.210941,51.5042,2020
88121917,540,542,21/06/2019 16:23,722,"Finnis Street, Bethnal Green",21/06/2019 16:14,58,"New Inn Yard, Shoreditch",-0.0792481,51.5245,-0.0586315,51.5246,2019
85571504,660,2601,03/04/2019 16:29,572,"Greenland Road, Camden Town",03/04/2019 16:18,110,"Wellington Road, St. John's Wood",-0.172529,51.533,-0.141728,51.5391,2019
67656343,1740,15074,23/07/2017 12:17,470,"Mostyn Grove, Bow",23/07/2017 11:48,471,"Hewison Street, Old Ford",-0.028155,51.5333,-0.025492,51.5305,2017
70230667,600,14472,09/10/2017 8:13,395,"Cadogan Gardens, Chelsea",09/10/2017 8:03,710,"Albert Bridge Road, Battersea Park",-0.163348,51.4744,-0.159919,51.4925,2017
62724261,360,4952,01/03/2017 7:24,568,"Bishop's Bridge Road West, Bayswater",01/03/2017 7:18,225,"Notting Hill Gate Station, Notting Hill",-0.196422,51.5094,-0.18697,51.5162,2017
82724980,600,13179,04/12/2018 16:35,338,"Wellington Street , Strand",04/12/2018 16:25,810,"Tate Modern, Bankside",-0.098884952,51.50672097,-0.119643,51.5118,2018
66886779,600,9711,03/07/2017 22:18,524,"Lancaster Gate , Bayswater",03/07/2017 22:08,99,"Old Quebec Street, Marylebone",-0.158264,51.5146,-0.179668,51.5117,2017
72297718,840,13007,28/12/2017 8:59,199,"Great Tower Street, Monument",28/12/2017 8:45,512,"Pritchard's Road, Bethnal Green",-0.06142,51.5321,-0.0829896,51.5105,2017
99504026,720,4867,16/07/2020 14:24,587,"Monument Street, Monument",16/07/2020 14:12,278,"Tooley Street, Bermondsey",-0.079621,51.5035,-0.08497,51.5096,2020
82474970,600,5231,23/11/2018 15:15,162,"Southampton Place, Holborn",23/11/2018 15:05,109,"Soho Square , Soho",-0.132329,51.5156,-0.121328,51.5176,2018
97985893,420,9008,08/06/2020 16:44,117,"Lollard Street, Vauxhall",08/06/2020 16:37,347,"Lower Marsh, Waterloo",-0.113936,51.5001,-0.114934,51.4929,2020
84752904,1140,11436,04/03/2019 9:23,717,"Dunston Road , Haggerston",04/03/2019 9:04,806,"Handyside Street, King's Cross",-0.12481,51.53724,-0.0758857,51.5366,2019
88200727,720,7758,23/06/2019 17:47,14,"Belgrove Street , King's Cross",23/06/2019 17:35,127,"Wood Street, Guildhall",-0.0938854,51.517,-0.123617,51.5299,2019
89099403,840,16732,16/07/2019 8:34,345,"Flood Street, Chelsea",16/07/2019 8:20,638,"Falcon Road, Clapham Junction",-0.169821,51.4666,-0.166879,51.488,2019
79322442,540,8344,16/08/2018 7:47,32,"Leonard Circus , Shoreditch",16/08/2018 7:38,71,"Newgate Street , St. Paul's",-0.0988509,51.5154,-0.0844393,51.5247,2018
68266516,6861,10591,10/08/2017 18:51,191,"Hyde Park Corner, Hyde Park",10/08/2017 16:57,643,"All Saints' Road, Portobello",-0.204764,51.519,-0.153521,51.5031,2017
86929734,240,9900,17/05/2019 8:57,105,"Westbourne Grove, Bayswater",17/05/2019 8:53,379,"Turquoise Island, Notting Hill",-0.200838,51.5143,-0.190241,51.5155,2019
99012706,1020,9975,03/07/2020 17:16,340,"Bank of England Museum, Bank",03/07/2020 16:59,441,"Sail Street, Vauxhall",-0.114605,51.4957,-0.0875874,51.5144,2020
89276202,540,13259,21/07/2019 1:17,272,"Baylis Road, Waterloo",21/07/2019 1:08,412,"Cleaver Street, Kennington",-0.110121,51.4881,-0.110699,51.5014,2019
84565610,180,10510,25/02/2019 14:20,331,"Bunhill Row, Moorgate",25/02/2019 14:17,52,"Roscoe Street, St. Luke's",-0.0949349,51.523,-0.0898879,51.5209,2019
71975081,780,3696,08/12/2017 18:44,335,"Tavistock Street, Covent Garden",08/12/2017 18:31,436,"Red Lion Street, Holborn",-0.11655,51.5182,-0.120719,51.512,2017
62852929,180,7520,06/03/2017 17:01,287,"Bedford Way, Bloomsbury",06/03/2017 16:58,65,"Gower Place , Euston",-0.135189,51.5252,-0.128378,51.5237,2017
78410604,1260,10942,23/07/2018 17:34,159,"Great Marlborough Street, Soho",23/07/2018 17:13,367,"Harrowby Street, Marylebone",-0.164208,51.5174,-0.137841,51.5146,2018
75743342,1200,1793,18/05/2018 16:10,358,"High Holborn , Covent Garden",18/05/2018 15:50,500,"Ansell House, Stepney",-0.055731,51.5198,-0.124332,51.5164,2018
99748933,1260,994,21/07/2020 20:40,598,"Southerton Road, Hammersmith",21/07/2020 20:19,681,"Bishop's Avenue, Fulham",-0.21475,51.473,-0.228188,51.4945,2020
64794120,540,13344,09/05/2017 7:55,474,"Castalia Square, Cubitt Town",09/05/2017 7:46,487,"Canton Street, Poplar",-0.025626,51.5118,-0.011457,51.4981,2017
90441129,2580,14375,23/08/2019 0:35,195,"Milroy Walk, South Bank",22/08/2019 23:52,839,"Sea Containers, South Bank",-0.1068403,51.507974,-0.106238,51.5072,2019
99763981,1860,17678,22/07/2020 12:16,359,"Butler Place, Westminster",22/07/2020 11:45,350,"Queen's Gate, Kensington Gardens",-0.179854,51.5017,-0.135441,51.4978,2020
75907953,300,9637,22/05/2018 17:34,11,"Brunswick Square, Bloomsbury",22/05/2018 17:29,264,"Tysoe Street, Clerkenwell",-0.109257,51.5264,-0.122502,51.524,2018
97432517,5220,3055,26/05/2020 16:02,784,"East Village, Queen Elizabeth Olympic Park",26/05/2020 14:35,784,"East Village, Queen Elizabeth Olympic Park",-0.00993526,51.5463,-0.00993526,51.5463,2020
65608932,300,7887,01/06/2017 9:42,119,"Bath Street, St. Luke's",01/06/2017 9:37,264,"Tysoe Street, Clerkenwell",-0.109257,51.5264,-0.0908478,51.5259,2017
90589884,720,8607,27/08/2019 12:05,553,"Regent's Row , Haggerston ",27/08/2019 11:53,365,"City Road, Angel",-0.100168,51.5303,-0.062546,51.5357,2019
101313510,780,368,31/08/2020 16:50,611,"Princedale Road , Holland Park",31/08/2020 16:37,682,"Crisp Road, Hammersmith",-0.226606,51.4881,-0.208487,51.5065,2020
83429977,1260,4912,09/01/2019 12:29,532,"Jubilee Plaza, Canary Wharf",09/01/2019 12:08,486,"Granby Street, Shoreditch",-0.069543,51.5256,-0.020068,51.5036,2019
72574898,240,9657,12/01/2018 17:57,633,"Vereker Road, West Kensington",12/01/2018 17:53,761,"Humbolt Road, Fulham",-0.211861,51.4832,-0.209379,51.4896,2018
84322305,840,3702,17/02/2019 2:27,344,"Goswell Road (City Uni), Finsbury",17/02/2019 2:13,443,"Philpot Street, Whitechapel",-0.058641,51.5153,-0.101026,51.5282,2019
98828092,1500,17732,28/06/2020 12:46,477,"Spindrift Avenue, Millwall",28/06/2020 12:21,511,"Sutton Street, Shadwell",-0.053558,51.5111,-0.018716,51.4911,2020
84903165,180,9388,10/03/2019 12:17,645,"Great Suffolk Street, The Borough",10/03/2019 12:14,324,"Ontario Street, Elephant & Castle",-0.101384,51.4965,-0.100292,51.5017,2019
88496814,960,5679,01/07/2019 9:19,40,"Commercial Street, Shoreditch",01/07/2019 9:03,308,"Long Lane , Bermondsey",-0.0856663,51.4991,-0.0755789,51.5213,2019
75634490,540,15018,15/05/2018 17:55,374,"Waterloo Station 1, Waterloo",15/05/2018 17:46,27,"Bouverie Street, Temple",-0.107928,51.5138,-0.113864,51.504,2018
89023918,660,8009,14/07/2019 0:41,288,"Elizabeth Bridge, Victoria",14/07/2019 0:30,726,"Alfreda Street, Battersea Park",-0.150908,51.4751,-0.147479,51.4924,2019
74121350,300,11320,25/03/2018 19:58,80,"Webber Street , Southwark",25/03/2018 19:53,194,"Hop Exchange, The Borough",-0.0917738,51.5046,-0.102091,51.5007,2018
63290567,240,7912,22/03/2017 10:04,161,"Guildhouse Street, Victoria",22/03/2017 10:00,424,"Ebury Bridge, Pimlico",-0.149186,51.4905,-0.141334,51.4923,2017
99522093,960,14373,16/07/2020 20:03,553,"Regent's Row , Haggerston ",16/07/2020 19:47,326,"Graham Street, Angel",-0.0999811,51.5327,-0.062546,51.5357,2020
75182253,1920,14486,03/05/2018 20:36,72,"Farringdon Lane, Clerkenwell",03/05/2018 20:04,89,"Tavistock Place, Bloomsbury",-0.12351,51.5263,-0.10834,51.5235,2018
88267314,300,6816,25/06/2019 15:20,101,"Queen Street 1, Bank",25/06/2019 15:15,703,"St. Bride Street, Holborn",-0.105344,51.5151,-0.0929401,51.5116,2019
77257388,1200,393,26/06/2018 16:15,130,"Tower Gardens , Tower",26/06/2018 15:55,474,"Castalia Square, Cubitt Town",-0.011457,51.4981,-0.0754595,51.5095,2018
93356995,600,10418,29/11/2019 17:04,177,"Ashley Place, Victoria",29/11/2019 16:54,233,"Pall Mall East, West End",-0.1307,51.5078,-0.140948,51.4962,2019
81739734,1740,5750,26/10/2018 12:37,762,"Storey's Gate, Westminster",26/10/2018 12:08,111,"Park Lane , Hyde Park",-0.157276,51.51,-0.129699,51.5007,2018
98172459,1440,16218,13/06/2020 21:30,138,"Green Street, Mayfair",13/06/2020 21:06,280,"Royal Avenue 2, Chelsea",-0.162727,51.4899,-0.157437,51.5123,2020
97154227,2820,12797,20/05/2020 18:09,428,"Exhibition Road, Knightsbridge",20/05/2020 17:22,428,"Exhibition Road, Knightsbridge",-0.174554,51.4999,-0.174554,51.4999,2020
99925520,1140,18026,26/07/2020 15:36,684,"Neville Gill Close, Wandsworth",26/07/2020 15:17,602,"Union Grove, Wandsworth Road",-0.133972,51.473,-0.195197,51.4548,2020
91307225,420,75,16/09/2019 18:05,14,"Belgrove Street , King's Cross",16/09/2019 17:58,51,"Finsbury Library , Finsbury",-0.104298,51.5267,-0.123617,51.5299,2019
73917944,540,2769,16/03/2018 11:46,210,"Hinde Street, Marylebone",16/03/2018 11:37,410,"Edgware Road Station, Marylebone",-0.169774,51.52,-0.151926,51.5168,2018
87861771,540,2733,13/06/2019 21:16,98,"Hampstead Road, Euston",13/06/2019 21:07,24,"British Museum, Bloomsbury",-0.124678,51.5191,-0.138231,51.5255,2019
65316664,600,5057,24/05/2017 18:31,184,"Portland Place, Marylebone",24/05/2017 18:21,541,"Green Park Station, Mayfair",-0.142844,51.5066,-0.145212,51.5207,2017
85567999,240,5665,03/04/2019 12:57,25,"Doric Way , Somers Town",03/04/2019 12:53,98,"Hampstead Road, Euston",-0.138231,51.5255,-0.13225,51.5288,2019
86042387,1560,3198,20/04/2019 0:33,150,"Holy Trinity Brompton, Knightsbridge",20/04/2019 0:07,325,"St. Martin's Street, West End",-0.129698,51.5091,-0.168917,51.4971,2019
67178870,660,5679,10/07/2017 14:03,252,"Jubilee Gardens, South Bank",10/07/2017 13:52,125,"Borough High Street, The Borough",-0.0945243,51.5007,-0.116542,51.5046,2017
80829989,1080,13663,29/09/2018 15:36,14,"Belgrove Street , King's Cross",29/09/2018 15:18,253,"Shoreditch Park, Hoxton",-0.0863797,51.534,-0.123617,51.5299,2018
62590806,1620,10460,22/02/2017 20:24,499,"Furze Green, Bow",22/02/2017 19:57,162,"Southampton Place, Holborn",-0.121328,51.5176,-0.021345,51.5193,2017
96391264,1380,4111,23/04/2020 9:44,181,"Belgrave Square, Belgravia",23/04/2020 9:21,758,"Westbourne Park Road, Portobello",-0.201005,51.5179,-0.152318,51.4994,2020
71464281,720,4853,18/11/2017 17:20,119,"Bath Street, St. Luke's",18/11/2017 17:08,136,"Queen Victoria Street, St. Paul's",-0.0974417,51.512,-0.0908478,51.5259,2017
71309597,840,13010,13/11/2017 9:51,246,"Berry Street, Clerkenwell",13/11/2017 9:37,564,"Somerset House, Strand",-0.117619,51.5099,-0.0999941,51.5229,2017
94668543,240,15568,29/01/2020 23:01,708,"Disraeli Road, Putney",29/01/2020 22:57,607,"Putney Bridge Station, Fulham",-0.210279,51.4688,-0.216146,51.4616,2020
99276834,900,15274,10/07/2020 23:11,292,"Montpelier Street, Knightsbridge",10/07/2020 22:56,818,"Westminster Pier, Westminster",-0.12382352,51.501513,-0.165472,51.4989,2020
66584445,1620,13861,26/06/2017 10:08,762,"Storey's Gate, Westminster",26/06/2017 9:41,378,"Natural History Museum, South Kensington",-0.179078,51.4956,-0.129699,51.5007,2017
93621400,420,15421,10/12/2019 17:33,644,"Rainville Road, Hammersmith",10/12/2019 17:26,707,"Barons Court Station, West Kensington",-0.215087,51.4902,-0.223852,51.4837,2019
88055687,780,7536,19/06/2019 20:16,553,"Regent's Row , Haggerston ",19/06/2019 20:03,692,"Cadogan Close, Victoria Park",-0.0289416,51.5421,-0.062546,51.5357,2019
71428272,300,8107,17/11/2017 8:21,441,"Sail Street, Vauxhall",17/11/2017 8:16,92,"Borough Road, Elephant & Castle",-0.100441,51.4989,-0.114605,51.4957,2017
78165706,1140,401,17/07/2018 18:46,159,"Great Marlborough Street, Soho",17/07/2018 18:27,428,"Exhibition Road, Knightsbridge",-0.174554,51.4999,-0.137841,51.5146,2018
97028373,24780,14350,17/05/2020 20:59,186,"South Wharf Road, Paddington",17/05/2020 14:06,789,"Podium, Queen Elizabeth Olympic Park",-0.0118895,51.5387,-0.175811,51.5173,2020
93818879,840,10282,19/12/2019 18:29,14,"Belgrove Street , King's Cross",19/12/2019 18:15,159,"Great Marlborough Street, Soho",-0.137841,51.5146,-0.123617,51.5299,2019
90058221,900,6066,11/08/2019 13:34,502,"Bonner Gate, Victoria Park",11/08/2019 13:19,552,"Watney Street, Shadwell",-0.056667,51.5115,-0.0495918,51.3341,2019
84806953,840,5196,06/03/2019 8:29,130,"Tower Gardens , Tower",06/03/2019 8:15,374,"Waterloo Station 1, Waterloo",-0.113864,51.504,-0.0754595,51.5095,2019
69655549,1080,14861,21/09/2017 20:12,251,"Brushfield Street, Liverpool Street",21/09/2017 19:54,335,"Tavistock Street, Covent Garden",-0.120719,51.512,-0.079249,51.5189,2017
78162082,2520,9895,17/07/2018 18:32,239,"Warren Street Station, Euston",17/07/2018 17:50,273,"Belvedere Road 1, South Bank",-0.114686,51.5061,-0.138019,51.5244,2018
89789105,1800,5109,03/08/2019 18:47,616,"Aintree Street, Fulham",03/08/2019 18:17,581,"New Cavendish Street, Marylebone",-0.147983,51.5192,-0.209973,51.481,2019
81033909,360,7137,05/10/2018 9:05,374,"Waterloo Station 1, Waterloo",05/10/2018 8:59,230,"Poured Lines, Bankside",-0.103137,51.5067,-0.113864,51.504,2018
80096640,300,929,08/09/2018 11:06,392,"Imperial College, Knightsbridge",08/09/2018 11:01,405,"Gloucester Road Station, South Kensington",-0.182671,51.4942,-0.179702,51.4994,2018
86904715,1200,15832,16/05/2019 16:42,168,"Argyll Road, Kensington",16/05/2019 16:22,541,"Green Park Station, Mayfair",-0.142844,51.5066,-0.195456,51.5004,2019
100099261,660,17183,31/07/2020 9:40,732,"Duke Street Hill, London Bridge",31/07/2020 9:29,237,"Dock Street, Wapping",-0.0671764,51.5084,-0.087263,51.5063,2020
77631990,300,14719,05/07/2018 7:45,176,"Gloucester Terrace, Bayswater",05/07/2018 7:40,379,"Turquoise Island, Notting Hill",-0.200838,51.5143,-0.188099,51.5179,2018
66240402,1380,1518,17/06/2017 21:36,716,"Stainsby Road , Poplar",17/06/2017 21:13,811,"Westferry Circus, Canary Wharf",-0.027775894,51.50569679,-0.023565,51.5154,2017
94222303,1440,8371,11/01/2020 15:36,105,"Westbourne Grove, Bayswater",11/01/2020 15:12,301,"Marylebone Lane, Marylebone",-0.148105,51.5148,-0.190241,51.5155,2020
81381435,1320,15540,16/10/2018 9:03,799,"Kings Gate House, Westminster",16/10/2018 8:41,612,"Wandsworth Rd, Isley Court, Wandsworth Road",-0.141813,51.4693,-0.137599,51.4977,2018
79171578,1440,1090,11/08/2018 21:15,169,"Porchester Place, Paddington",11/08/2018 20:51,564,"Somerset House, Strand",-0.117619,51.5099,-0.165164,51.5147,2018
96821706,1560,10062,09/05/2020 18:11,710,"Albert Bridge Road, Battersea Park",09/05/2020 17:45,694,"Putney Rail Station, Putney",-0.216526,51.4607,-0.163348,51.4744,2020
80745421,1920,15271,27/09/2018 10:04,66,"Holborn Circus, Holborn",27/09/2018 9:32,216,"Old Brompton Road, South Kensington",-0.181191,51.4909,-0.108657,51.518,2018
67518694,720,412,19/07/2017 8:34,599,"Manbre Road, Hammersmith",19/07/2017 8:22,693,"Felsham Road, Putney",-0.215619,51.4648,-0.223616,51.4857,2017
70361388,1260,3325,12/10/2017 18:39,757,"Harcourt Terrace, West Brompton",12/10/2017 18:18,366,"Millennium Hotel, Mayfair",-0.151126,51.5109,-0.187405,51.488,2017
88231475,480,14856,24/06/2019 16:48,499,"Furze Green, Bow",24/06/2019 16:40,522,"Clinton Road, Mile End",-0.036017,51.5259,-0.021345,51.5193,2019
78895914,1560,5312,04/08/2018 15:22,77,"Russell Square Station, Bloomsbury",04/08/2018 14:56,47,"Warwick Avenue Station, Maida Vale",-0.183846,51.5233,-0.124122,51.5234,2018
62457301,480,13931,17/02/2017 18:45,449,"Shadwell Station, Shadwell",17/02/2017 18:37,46,"Nesham Street, Wapping",-0.06691,51.5071,-0.057159,51.5111,2017
75362804,660,12883,08/05/2018 9:01,132,"Bethnal Green Road, Shoreditch",08/05/2018 8:50,491,"Queen Mary's, Mile End",-0.041378,51.5225,-0.0747549,51.5236,2018
71941504,720,9311,07/12/2017 15:18,372,"Sardinia Street, Holborn",07/12/2017 15:06,797,"Ossulston Street, Somers Town",-0.128281945,51.52930361,-0.117863,51.5152,2017
92312064,240,8059,20/10/2019 15:13,114,"Park Road (Baker Street), The Regent's Park",20/10/2019 15:09,56,"Paddington Street, Marylebone",-0.154701,51.5206,-0.158964,51.5245,2019
64119485,2520,11482,16/04/2017 19:29,681,"Bishop's Avenue, Fulham",16/04/2017 18:47,681,"Bishop's Avenue, Fulham",-0.21475,51.473,-0.21475,51.473,2017
84136097,1260,2126,09/02/2019 16:48,646,"Buckingham Gate, Westminster",09/02/2019 16:27,258,"Kensington Gore, Knightsbridge",-0.178657,51.5014,-0.137425,51.4989,2019
81366422,960,12929,15/10/2018 18:37,252,"Jubilee Gardens, South Bank",15/10/2018 18:21,71,"Newgate Street , St. Paul's",-0.0988509,51.5154,-0.116542,51.5046,2018
70368527,900,6759,12/10/2017 22:31,199,"Great Tower Street, Monument",12/10/2017 22:16,386,"Moor Street, Soho",-0.130111,51.5135,-0.0829896,51.5105,2017
85202332,360,16485,22/03/2019 11:34,163,"Sloane Avenue, Knightsbridge",22/03/2019 11:28,171,"Collingham Gardens, Earl's Court",-0.186754,51.4916,-0.167895,51.4932,2019
83333880,300,13693,04/01/2019 22:55,344,"Goswell Road (City Uni), Finsbury",04/01/2019 22:50,234,"Liverpool Road (N1 Centre), Angel",-0.106993,51.5345,-0.101026,51.5282,2019
63707500,1020,2345,04/04/2017 18:11,224,"Whiteley's, Bayswater",04/04/2017 17:54,754,"Grenfell Road, Avondale",-0.214763,51.5129,-0.1874024,51.51031,2017
83190341,1440,15773,27/12/2018 14:21,640,"Silverthorne Road, Battersea",27/12/2018 13:57,671,"Parsons Green Station, Parsons Green",-0.201968,51.4751,-0.148059,51.4729,2018
81439864,840,7411,17/10/2018 19:27,730,"Bridge Avenue, Hammersmith",17/10/2018 19:13,660,"West Kensington Station, West Kensington",-0.20603,51.4909,-0.229117,51.4921,2018
67170544,900,14242,10/07/2017 9:22,529,"Manresa Road, Chelsea",10/07/2017 9:07,619,"Irene Road, Parsons Green",-0.19701,51.4738,-0.170983,51.4869,2017
79053150,780,3897,08/08/2018 9:02,810,"Tate Modern, Bankside",08/08/2018 8:49,489,"Christian Street, Whitechapel",-0.064094,51.5131,-0.098884952,51.50672097,2018
91622933,120,16395,25/09/2019 21:13,405,"Gloucester Road Station, South Kensington",25/09/2019 21:11,97,"Gloucester Road (North), Kensington",-0.183835,51.4979,-0.182671,51.4942,2019
74641514,240,13645,17/04/2018 17:20,154,"Waterloo Station 3, Waterloo",17/04/2018 17:16,335,"Tavistock Street, Covent Garden",-0.120719,51.512,-0.113864,51.504,2018
84920262,1200,12732,11/03/2019 9:39,15,"Great Russell Street, Bloomsbury",11/03/2019 9:19,604,"St Martins Close, Camden Town",-0.138535,51.5388,-0.127854,51.5177,2019
98497085,1080,7068,21/06/2020 16:08,688,"Northfields, Wandsworth",21/06/2020 15:50,776,"Abyssinia Close, Clapham Junction",-0.167029,51.4603,-0.200668,51.461,2020
82366549,1200,591,18/11/2018 13:27,459,"Gunmakers Lane, Old Ford",18/11/2018 13:07,784,"East Village, Queen Elizabeth Olympic Park",-0.00993526,51.5463,-0.03338,51.5352,2018
63316736,2100,13143,23/03/2017 10:34,159,"Great Marlborough Street, Soho",23/03/2017 9:59,253,"Shoreditch Park, Hoxton",-0.0863797,51.534,-0.137841,51.5146,2017
72337220,10620,12829,01/01/2018 2:13,159,"Great Marlborough Street, Soho",31/12/2017 23:16,192,"Wardour Street, Soho",-0.133202,51.5125,-0.137841,51.5146,2018
76516617,420,2104,08/06/2018 7:51,17,"Hatton Wall, Holborn",08/06/2018 7:44,798,"Birkenhead Street, King's Cross",-0.122299,51.5302,-0.109006,51.5217,2018
61633519,480,3383,12/01/2017 6:20,427,"Cheapside, Bank",12/01/2017 6:12,196,"Union Street, The Borough",-0.0984977,51.5037,-0.0929403,51.514,2017
94667247,1080,10375,29/01/2020 21:23,322,"Palissy Street, Shoreditch",29/01/2020 21:05,502,"Bonner Gate, Victoria Park",-0.0495918,51.3341,-0.073955,51.5263,2020
76787445,2580,1063,14/06/2018 19:51,307,"Black Lion Gate, Kensington Gardens",14/06/2018 19:08,111,"Park Lane , Hyde Park",-0.157276,51.51,-0.187843,51.5099,2018
95817713,300,2139,20/03/2020 15:59,315,"The Tennis Courts, The Regent's Park",20/03/2020 15:54,56,"Paddington Street, Marylebone",-0.154701,51.5206,-0.153464,51.5254,2020
72790211,1320,11376,23/01/2018 8:20,32,"Leonard Circus , Shoreditch",23/01/2018 7:58,469,"Lindfield Street, Poplar",-0.020467,51.5138,-0.0844393,51.5247,2018
99676615,420,244,20/07/2020 9:09,595,"Hammersmith Road, Hammersmith",20/07/2020 9:02,168,"Argyll Road, Kensington",-0.195456,51.5004,-0.21985,51.4933,2020
84855437,360,1357,08/03/2019 6:29,217,"Wormwood Street, Liverpool Street",08/03/2019 6:23,54,"Golden Lane, Barbican",-0.0944751,51.5217,-0.0824224,51.5162,2019
75491812,1140,12834,11/05/2018 10:57,106,"Woodstock Street, Mayfair",11/05/2018 10:38,287,"Bedford Way, Bloomsbury",-0.128378,51.5237,-0.147302,51.5141,2018
84859495,840,4138,08/03/2019 8:38,797,"Ossulston Street, Somers Town",08/03/2019 8:24,64,"William IV Street, Strand",-0.124749,51.5095,-0.128281945,51.52930361,2019
92721623,240,10275,04/11/2019 19:56,437,"Vauxhall Walk, Vauxhall",04/11/2019 19:52,117,"Lollard Street, Vauxhall",-0.114934,51.4929,-0.120903,51.4881,2019
87085593,300,469,21/05/2019 20:45,602,"Union Grove, Wandsworth Road",21/05/2019 20:40,772,"Binfield Road, Stockwell",-0.122832,51.4725,-0.133972,51.473,2019
101119336,1080,17866,25/08/2020 18:52,166,"Seville Street, Knightsbridge",25/08/2020 18:34,690,"Stanley Grove, Battersea",-0.15213,51.4705,-0.159237,51.5019,2020
83578397,240,16024,15/01/2019 15:20,503,"Cleveland Way, Stepney",15/01/2019 15:16,446,"York Hall, Bethnal Green",-0.055894,51.5289,-0.051394,51.5209,2019
67382308,1800,4149,15/07/2017 19:14,380,"Stanhope Gate, Mayfair",15/07/2017 18:44,398,"Holland Park, Kensington",-0.200742,51.5023,-0.150667,51.5069,2017
86091456,480,8842,21/04/2019 12:22,354,"Northumberland Avenue, Strand",21/04/2019 12:14,762,"Storey's Gate, Westminster",-0.129699,51.5007,-0.123702,51.5068,2019
83113252,480,9144,22/12/2018 16:03,534,"Goldsmith's Row, Haggerston",22/12/2018 15:55,446,"York Hall, Bethnal Green",-0.055894,51.5289,-0.066035,51.5319,2018
68650661,622,1033,21/08/2017 20:50,742,"Blenheim Crescent, Ladbroke Grove",21/08/2017 20:40,145,"Ilchester Place, Kensington",-0.202759,51.5007,-0.208565,51.5151,2017
66119965,360,9562,15/06/2017 8:33,801,"Lavington Street, Bankside",15/06/2017 8:27,154,"Waterloo Station 3, Waterloo",-0.113864,51.504,-0.0980318,51.5052,2017
88743801,780,7618,07/07/2019 6:23,104,"Crosswall, Tower",07/07/2019 6:10,193,"Bankside Mix, Bankside",-0.100186,51.5058,-0.0771213,51.5116,2019
74152937,540,4472,26/03/2018 21:49,106,"Woodstock Street, Mayfair",26/03/2018 21:40,192,"Wardour Street, Soho",-0.133202,51.5125,-0.147302,51.5141,2018
93396114,1140,7870,01/12/2019 16:45,307,"Black Lion Gate, Kensington Gardens",01/12/2019 16:26,191,"Hyde Park Corner, Hyde Park",-0.153521,51.5031,-0.187843,51.5099,2019
87792954,480,15800,11/06/2019 15:45,133,"Derry Street, Kensington",11/06/2019 15:37,248,"Triangle Car Park, Hyde Park",-0.17028,51.5065,-0.191462,51.5014,2019
65509572,1140,10223,29/05/2017 18:37,751,"Newton Street, Covent Garden",29/05/2017 18:18,748,"Hertford Road, De Beauvoir Town",-0.0792018,51.5373,-0.120909,51.5161,2017
86631280,540,2692,08/05/2019 17:32,798,"Birkenhead Street, King's Cross",08/05/2019 17:23,67,"Hatton Garden, Holborn",-0.108028,51.5188,-0.122299,51.5302,2019
78347806,600,9557,22/07/2018 3:42,156,"New Kent Road, The Borough",22/07/2018 3:32,262,"LSBU (Borough Road), Elephant & Castle",-0.103133,51.4987,-0.0929212,51.4944,2018
70621734,1260,5799,20/10/2017 16:46,644,"Rainville Road, Hammersmith",20/10/2017 16:25,432,"Exhibition Road Museums, South Kensington",-0.173894,51.497,-0.223852,51.4837,2017
82582684,780,9749,28/11/2018 15:34,251,"Brushfield Street, Liverpool Street",28/11/2018 15:21,321,"Bermondsey Street, Bermondsey",-0.081608,51.4979,-0.079249,51.5189,2018
75575835,180,9252,14/05/2018 9:10,378,"Natural History Museum, South Kensington",14/05/2018 9:07,128,"Emperor's Gate, South Kensington",-0.185297,51.4954,-0.179078,51.4956,2018
94085374,420,12109,06/01/2020 11:07,136,"Queen Victoria Street, St. Paul's",06/01/2020 11:00,217,"Wormwood Street, Liverpool Street",-0.0824224,51.5162,-0.0974417,51.512,2020
95484504,1200,5892,05/03/2020 8:25,78,"Sadlers Sports Centre, Finsbury",05/03/2020 8:05,117,"Lollard Street, Vauxhall",-0.114934,51.4929,-0.0994895,51.5249,2020
100873381,1920,17719,18/08/2020 21:20,654,"Ashmole Estate, Oval",18/08/2020 20:48,39,"Shoreditch High Street, Shoreditch",-0.0781309,51.5264,-0.117662,51.4827,2020
77597643,540,342,04/07/2018 10:40,244,"Earnshaw Street , Covent Garden",04/07/2018 10:31,581,"New Cavendish Street, Marylebone",-0.147983,51.5192,-0.128585,51.5161,2018
77865788,1380,5951,10/07/2018 17:35,674,"Carnegie Street, King's Cross",10/07/2018 17:12,210,"Hinde Street, Marylebone",-0.151926,51.5168,-0.116191,51.5355,2018
61686200,9240,6394,14/01/2017 22:57,387,"Fire Brigade Pier, Vauxhall",14/01/2017 20:23,387,"Fire Brigade Pier, Vauxhall",-0.121394,51.4937,-0.121394,51.4937,2017
98170525,1020,13184,13/06/2020 20:40,186,"South Wharf Road, Paddington",13/06/2020 20:23,36,"De Vere Gardens, Kensington",-0.184981,51.5017,-0.175811,51.5173,2020
99838139,1740,12754,23/07/2020 23:52,510,"Westferry DLR, Limehouse",23/07/2020 23:23,839,"Sea Containers, South Bank",-0.1068403,51.507974,-0.025996,51.5093,2020
81691442,480,14864,24/10/2018 21:08,333,"Palace Gardens Terrace, Notting Hill",24/10/2018 21:00,405,"Gloucester Road Station, South Kensington",-0.182671,51.4942,-0.193764,51.5086,2018
84603053,480,7120,26/02/2019 16:11,216,"Old Brompton Road, South Kensington",26/02/2019 16:03,356,"South Kensington Station, South Kensington",-0.173881,51.4944,-0.181191,51.4909,2019
67968120,1029,12341,01/08/2017 9:04,364,"Alfred Place, Bloomsbury",01/08/2017 8:47,186,"South Wharf Road, Paddington",-0.175811,51.5173,-0.132339,51.5197,2017
100549046,360,4343,10/08/2020 9:37,97,"Gloucester Road (North), Kensington",10/08/2020 9:31,142,"West Cromwell Road, Earl's Court",-0.198287,51.4937,-0.183835,51.4979,2020
91416084,720,12182,19/09/2019 14:56,776,"Abyssinia Close, Clapham Junction",19/09/2019 14:44,183,"Riverlight North, Nine Elms",-0.136124,51.4824,-0.167029,51.4603,2019
78370906,720,7039,22/07/2018 17:04,405,"Gloucester Road Station, South Kensington",22/07/2018 16:52,292,"Montpelier Street, Knightsbridge",-0.165472,51.4989,-0.182671,51.4942,2018
65270363,3360,4317,23/05/2017 18:37,310,"Black Prince Road, Vauxhall",23/05/2017 17:41,398,"Holland Park, Kensington",-0.200742,51.5023,-0.116912,51.4909,2017
61379516,1140,11163,30/12/2016 16:22,235,"Kennington Road  , Vauxhall",30/12/2016 16:03,803,"Southwark Street, Bankside",-0.098341088,51.50540994,-0.110889,51.4957,2016
98511337,480,8193,21/06/2020 19:01,392,"Imperial College, Knightsbridge",21/06/2020 18:53,171,"Collingham Gardens, Earl's Court",-0.186754,51.4916,-0.179702,51.4994,2020
62130396,420,903,03/02/2017 9:42,673,"Hibbert Street, Battersea",03/02/2017 9:35,685,"Osiers Road, Wandsworth",-0.198735,51.4607,-0.180389,51.4652,2017
74652840,420,12093,17/04/2018 21:56,702,"Durant Street, Bethnal Green",17/04/2018 21:49,446,"York Hall, Bethnal Green",-0.055894,51.5289,-0.0655503,51.5287,2018
66002699,480,13246,12/06/2017 15:54,214,"Endsleigh Gardens, Euston",12/06/2017 15:46,358,"High Holborn , Covent Garden",-0.124332,51.5164,-0.130504,51.5268,2017
73470228,3300,11114,22/02/2018 6:40,473,"Millharbour, Millwall",22/02/2018 5:45,295,"Swan Street, The Borough",-0.0927627,51.5003,-0.019355,51.4961,2018
93929104,1080,10529,27/12/2019 0:41,651,"Thorndike Close, West Chelsea",27/12/2019 0:23,2,"Phillimore Gardens, Kensington",-0.197574,51.4996,-0.183854,51.4809,2019
74765244,420,13303,20/04/2018 15:48,341,"Craven Street, Strand",20/04/2018 15:41,762,"Storey's Gate, Westminster",-0.129699,51.5007,-0.126021,51.5081,2018
68325347,2066,4400,12/08/2017 12:16,800,"Sopwith Way, Battersea Park",12/08/2017 11:42,663,"Clarendon Road, Avondale",-0.211594,51.5132,-0.149035,51.4811,2017
84498983,3120,1069,23/02/2019 12:36,350,"Queen's Gate, Kensington Gardens",23/02/2019 11:44,277,"Kensington Church Street, Kensington",-0.191496,51.5032,-0.179854,51.5017,2019
78716447,300,13375,31/07/2018 12:16,215,"Moorfields, Moorgate",31/07/2018 12:11,546,"New Fetter Lane, Holborn",-0.107987,51.5174,-0.0882854,51.5191,2018
65404960,2580,10222,26/05/2017 18:12,252,"Jubilee Gardens, South Bank",26/05/2017 17:29,276,"Lower Thames Street, Monument",-0.0849854,51.5093,-0.116542,51.5046,2017
101259394,780,17921,30/08/2020 12:00,357,"Howland Street, Fitzrovia",30/08/2020 11:47,325,"St. Martin's Street, West End",-0.129698,51.5091,-0.139016,51.521,2020
79580299,480,2417,23/08/2018 9:04,388,"Southampton Street, Strand",23/08/2018 8:56,306,"Rathbone Street, Fitzrovia",-0.135026,51.5182,-0.121724,51.5107,2018
100101972,1140,17470,31/07/2020 11:21,553,"Regent's Row , Haggerston ",31/07/2020 11:02,542,"Salmon Lane, Limehouse",-0.033828,51.5141,-0.062546,51.5357,2020
73666562,300,15039,06/03/2018 6:32,115,"Braham Street, Aldgate",06/03/2018 6:27,449,"Shadwell Station, Shadwell",-0.057159,51.5111,-0.0735377,51.5142,2018
88743366,960,10664,07/07/2019 2:42,625,"Queen's Circus, Battersea Park",07/07/2019 2:26,573,"Limerston Street, West Chelsea",-0.18119,51.4856,-0.149552,51.4776,2019
79545156,1020,14370,22/08/2018 11:06,357,"Howland Street, Fitzrovia",22/08/2018 10:49,78,"Sadlers Sports Centre, Finsbury",-0.0994895,51.5249,-0.139016,51.521,2018
81464703,1140,15065,18/10/2018 15:38,428,"Exhibition Road, Knightsbridge",18/10/2018 15:19,201,"Dorset Square, Marylebone",-0.161113,51.5226,-0.174554,51.4999,2018
75825422,2580,15427,20/05/2018 17:23,800,"Sopwith Way, Battersea Park",20/05/2018 16:40,800,"Sopwith Way, Battersea Park",-0.149035,51.4811,-0.149035,51.4811,2018
94616828,1740,15448,28/01/2020 9:10,82,"Chancery Lane, Holborn",28/01/2020 8:41,186,"South Wharf Road, Paddington",-0.175811,51.5173,-0.111257,51.5143,2020
66991195,1440,6672,06/07/2017 8:56,203,"West Smithfield Rotunda, Farringdon",06/07/2017 8:32,190,"Rampayne Street, Pimlico",-0.132846,51.49,-0.100791,51.5182,2017
79258877,180,14524,14/08/2018 16:42,24,"British Museum, Bloomsbury",14/08/2018 16:39,364,"Alfred Place, Bloomsbury",-0.132339,51.5197,-0.124678,51.5191,2018
63921986,360,4943,10/04/2017 9:21,3,"Christopher Street, Liverpool Street",10/04/2017 9:15,96,"Falkirk Street, Hoxton",-0.0785054,51.531,-0.0846057,51.5213,2017
73596437,1260,3098,28/02/2018 10:04,374,"Waterloo Station 1, Waterloo",28/02/2018 9:43,21,"Hampstead Road (Cartmel), Euston",-0.138846,51.5301,-0.113864,51.504,2018
81931936,300,2544,02/11/2018 16:26,14,"Belgrove Street , King's Cross",02/11/2018 16:21,19,"Taviton Street, Bloomsbury",-0.131161,51.5251,-0.123617,51.5299,2018
63092659,1440,3868,14/03/2017 19:14,337,"Pembridge Villas, Notting Hill",14/03/2017 18:50,210,"Hinde Street, Marylebone",-0.151926,51.5168,-0.197525,51.5111,2017
83803508,2100,4062,24/01/2019 19:33,680,"Westbridge Road, Battersea",24/01/2019 18:58,106,"Woodstock Street, Mayfair",-0.147302,51.5141,-0.170329,51.4777,2019
76823915,900,10376,15/06/2018 18:08,273,"Belvedere Road 1, South Bank",15/06/2018 17:53,175,"Appold Street, Liverpool Street",-0.0811189,51.5217,-0.114686,51.5061,2018
89471281,600,2034,25/07/2019 18:35,564,"Somerset House, Strand",25/07/2019 18:25,792,"Blackfriars Road, Southwark",-0.104541,51.5055,-0.117619,51.5099,2019
69908664,1320,6946,29/09/2017 8:50,443,"Philpot Street, Whitechapel",29/09/2017 8:28,272,"Baylis Road, Waterloo",-0.110699,51.5014,-0.058641,51.5153,2017
65912640,1320,12947,10/06/2017 9:28,138,"Green Street, Mayfair",10/06/2017 9:06,25,"Doric Way , Somers Town",-0.13225,51.5288,-0.157437,51.5123,2017
91388757,660,4082,18/09/2019 18:47,300,"Serpentine Car Park, Hyde Park",18/09/2019 18:36,168,"Argyll Road, Kensington",-0.195456,51.5004,-0.17273,51.505,2019
91130589,780,8961,11/09/2019 20:06,61,"Great Dover Street, The Borough",11/09/2019 19:53,427,"Cheapside, Bank",-0.0929403,51.514,-0.0894469,51.4974,2019
92582571,840,6808,30/10/2019 11:37,313,"Wells Street, Fitzrovia",30/10/2019 11:23,17,"Hatton Wall, Holborn",-0.109006,51.5217,-0.138073,51.5173,2019
84149540,840,7865,10/02/2019 17:21,615,"Finlay Street, Fulham",10/02/2019 17:07,384,"Marloes Road, Kensington",-0.192404,51.4965,-0.215896,51.4769,2019
75801855,780,3537,20/05/2018 9:10,95,"Aldersgate Street, Barbican",20/05/2018 8:57,18,"Drury Lane, Covent Garden",-0.12222,51.5148,-0.0973402,51.5208,2018
76929122,2040,6744,18/06/2018 19:30,247,"St. John's Wood Church, The Regent's Park",18/06/2018 18:56,98,"Hampstead Road, Euston",-0.138231,51.5255,-0.168314,51.5301,2018
100602598,420,14231,11/08/2020 15:42,478,"Stepney Green Station, Stepney",11/08/2020 15:35,282,"Royal London Hospital, Whitechapel",-0.0596421,51.5191,-0.04667,51.5219,2020
65302717,660,3526,24/05/2017 14:06,10,"Park Street, Bankside",24/05/2017 13:55,347,"Lower Marsh, Waterloo",-0.113936,51.5001,-0.0927542,51.506,2017
77182935,5520,9109,24/06/2018 21:53,303,"Albert Gate, Hyde Park",24/06/2018 20:21,191,"Hyde Park Corner, Hyde Park",-0.153521,51.5031,-0.158456,51.503,2018
87606242,120,9360,05/06/2019 8:39,498,"Bow Road Station, Bow",05/06/2019 8:37,495,"Bow Church Station, Bow",-0.018703,51.5282,-0.025296,51.5271,2019
71450222,360,13067,17/11/2017 18:58,73,"Old Street Station, St. Luke's",17/11/2017 18:52,574,"Eagle Wharf Road, Hoxton",-0.09315,51.5336,-0.0884862,51.5257,2017
92858564,960,11467,09/11/2019 23:34,52,"Roscoe Street, St. Luke's",09/11/2019 23:18,719,"Victoria Park Road, Hackney Central",-0.0541623,51.5364,-0.0949349,51.523,2019
94318231,240,3906,15/01/2020 23:18,230,"Poured Lines, Bankside",15/01/2020 23:14,136,"Queen Victoria Street, St. Paul's",-0.0974417,51.512,-0.103137,51.5067,2020
78677446,1380,4612,30/07/2018 13:40,111,"Park Lane , Hyde Park",30/07/2018 13:17,307,"Black Lion Gate, Kensington Gardens",-0.187843,51.5099,-0.157276,51.51,2018
85026412,1080,15868,15/03/2019 13:34,196,"Union Street, The Borough",15/03/2019 13:16,192,"Wardour Street, Soho",-0.133202,51.5125,-0.0984977,51.5037,2019
91297091,300,9077,16/09/2019 12:49,738,"Imperial Road, Sands End",16/09/2019 12:44,691,"Erin Close, Walham Green",-0.195777,51.4795,-0.187279,51.4751,2019
90565467,240,16396,26/08/2019 17:22,768,"Clapham Common North Side, Clapham Common",26/08/2019 17:18,764,"St. John's Road, Clapham Junction",-0.168292,51.4624,-0.159322,51.4613,2019
100089904,480,12732,30/07/2020 22:00,235,"Kennington Road  , Vauxhall",30/07/2020 21:52,283,"Kingsway, Covent Garden",-0.118479,51.5144,-0.110889,51.4957,2020
91963044,600,13688,08/10/2019 7:10,386,"Moor Street, Soho",08/10/2019 7:00,361,"Waterloo Station 2, Waterloo",-0.113864,51.504,-0.130111,51.5135,2019
73185274,1140,5256,08/02/2018 22:38,501,"Cephas Street, Bethnal Green",08/02/2018 22:19,365,"City Road, Angel",-0.100168,51.5303,-0.054883,51.5226,2018
100377194,6420,17933,06/08/2020 17:08,811,"Westferry Circus, Canary Wharf",06/08/2020 15:21,192,"Wardour Street, Soho",-0.133202,51.5125,-0.027775894,51.50569679,2020
68818276,650,13216,26/08/2017 17:38,445,"Cheshire Street, Bethnal Green",26/08/2017 17:27,478,"Stepney Green Station, Stepney",-0.04667,51.5219,-0.065076,51.5239,2017
78696369,1080,11737,30/07/2018 19:58,430,"South Parade, Chelsea",30/07/2018 19:40,689,"Spanish Road, Clapham Junction",-0.180885,51.4592,-0.17524,51.489,2018
79304702,1020,9693,15/08/2018 17:54,197,"Stamford Street, South Bank",15/08/2018 17:37,217,"Wormwood Street, Liverpool Street",-0.0824224,51.5162,-0.111607,51.5056,2018
84444414,900,1256,21/02/2019 13:26,43,"Crawford Street, Marylebone",21/02/2019 13:11,76,"Longford Street, The Regent's Park",-0.144084,51.5256,-0.157184,51.5203,2019
95817720,420,14513,20/03/2020 16:02,645,"Great Suffolk Street, The Borough",20/03/2020 15:55,66,"Holborn Circus, Holborn",-0.108657,51.518,-0.100292,51.5017,2020
84893729,540,1734,09/03/2019 16:48,340,"Bank of England Museum, Bank",09/03/2019 16:39,32,"Leonard Circus , Shoreditch",-0.0844393,51.5247,-0.0875874,51.5144,2019
80310226,960,4835,14/09/2018 9:08,311,"Foley Street, Fitzrovia",14/09/2018 8:52,338,"Wellington Street , Strand",-0.119643,51.5118,-0.140486,51.5192,2018
87772831,960,13181,10/06/2019 19:45,506,"Bell Lane, Liverpool Street",10/06/2019 19:29,542,"Salmon Lane, Limehouse",-0.033828,51.5141,-0.075855,51.5175,2019
84104449,780,15421,07/02/2019 22:05,511,"Sutton Street, Shadwell",07/02/2019 21:52,511,"Sutton Street, Shadwell",-0.053558,51.5111,-0.053558,51.5111,2019
73647826,1500,443,05/03/2018 9:38,376,"Millbank Tower, Pimlico",05/03/2018 9:13,610,"Danvers Street, West Chelsea",-0.172078,51.4826,-0.125675,51.4919,2018
70045240,600,2272,03/10/2017 17:04,72,"Farringdon Lane, Clerkenwell",03/10/2017 16:54,24,"British Museum, Bloomsbury",-0.124678,51.5191,-0.10834,51.5235,2017
71603511,900,514,23/11/2017 18:37,185,"Alderney Street, Pimlico",23/11/2017 18:22,142,"West Cromwell Road, Earl's Court",-0.198287,51.4937,-0.140741,51.4881,2017
73553882,1020,14736,26/02/2018 7:41,81,"Great Titchfield Street, Fitzrovia",26/02/2018 7:24,154,"Waterloo Station 3, Waterloo",-0.113864,51.504,-0.141327,51.5203,2018
97584656,1320,9594,29/05/2020 21:33,167,"Eccleston Place, Victoria",29/05/2020 21:11,47,"Warwick Avenue Station, Maida Vale",-0.183846,51.5233,-0.147624,51.494,2020
93707813,360,10049,14/12/2019 13:50,687,"Maclise Road, Olympia",14/12/2019 13:44,775,"Little Brook Green, Brook Green",-0.223868,51.4967,-0.211456,51.4976,2019
76055192,5040,11742,26/05/2018 18:52,191,"Hyde Park Corner, Hyde Park",26/05/2018 17:28,191,"Hyde Park Corner, Hyde Park",-0.153521,51.5031,-0.153521,51.5031,2018
71222533,360,5619,09/11/2017 16:03,761,"Humbolt Road, Fulham",09/11/2017 15:57,626,"Normand Park, West Kensington",-0.204815,51.4844,-0.211861,51.4832,2017
81262860,420,4938,12/10/2018 8:11,707,"Barons Court Station, West Kensington",12/10/2018 8:04,616,"Aintree Street, Fulham",-0.209973,51.481,-0.215087,51.4902,2018
80132712,1740,1638,09/09/2018 14:28,300,"Serpentine Car Park, Hyde Park",09/09/2018 13:59,248,"Triangle Car Park, Hyde Park",-0.17028,51.5065,-0.17273,51.505,2018
91107885,1020,9008,11/09/2019 9:31,253,"Shoreditch Park, Hoxton",11/09/2019 9:14,522,"Clinton Road, Mile End",-0.036017,51.5259,-0.0863797,51.534,2019
80566807,1260,11137,21/09/2018 9:03,803,"Southwark Street, Bankside",21/09/2018 8:42,674,"Carnegie Street, King's Cross",-0.116191,51.5355,-0.098341088,51.50540994,2018
84096191,180,15478,07/02/2019 17:20,681,"Bishop's Avenue, Fulham",07/02/2019 17:17,607,"Putney Bridge Station, Fulham",-0.210279,51.4688,-0.21475,51.473,2019
100800134,720,367,16/08/2020 19:52,547,"East India DLR, Blackwall",16/08/2020 19:40,551,"Import Dock, Canary Wharf",-0.016233,51.5034,-0.002275,51.5095,2020
87875341,240,4623,14/06/2019 11:53,194,"Hop Exchange, The Borough",14/06/2019 11:49,645,"Great Suffolk Street, The Borough",-0.100292,51.5017,-0.0917738,51.5046,2019
78340313,900,6323,21/07/2018 20:18,52,"Roscoe Street, St. Luke's",21/07/2018 20:03,577,"Globe Town Market, Bethnal Green",-0.047548,51.5289,-0.0949349,51.523,2018
67293878,1500,12249,13/07/2017 15:43,23,"Red Lion Square, Holborn",13/07/2017 15:18,581,"New Cavendish Street, Marylebone",-0.147983,51.5192,-0.119123,51.5194,2017
79778215,1140,13530,30/08/2018 14:51,199,"Great Tower Street, Monument",30/08/2018 14:32,1,"River Street , Clerkenwell",-0.109971,51.5292,-0.0829896,51.5105,2018
70166806,1140,11082,06/10/2017 20:01,339,"Risinghill Street, Angel",06/10/2017 19:42,76,"Longford Street, The Regent's Park",-0.144084,51.5256,-0.111781,51.5333,2017
83479328,1080,4879,11/01/2019 9:22,651,"Thorndike Close, West Chelsea",11/01/2019 9:04,666,"Olympia Way, Olympia",-0.208158,51.4961,-0.183854,51.4809,2019
73186429,1320,2461,09/02/2018 6:53,190,"Rampayne Street, Pimlico",09/02/2018 6:31,758,"Westbourne Park Road, Portobello",-0.201005,51.5179,-0.132846,51.49,2018
81194547,1140,11402,10/10/2018 11:13,99,"Old Quebec Street, Marylebone",10/10/2018 10:54,590,"Greenberry Street, St.John's Wood",-0.16862,51.5326,-0.158264,51.5146,2018
64369331,240,6211,25/04/2017 7:18,196,"Union Street, The Borough",25/04/2017 7:14,269,"Empire Square, The Borough",-0.0897408,51.5008,-0.0984977,51.5037,2017
83862316,540,9321,28/01/2019 8:11,374,"Waterloo Station 1, Waterloo",28/01/2019 8:02,9,"New Globe Walk, Bankside",-0.0964408,51.5074,-0.113864,51.504,2019
71692003,600,15377,27/11/2017 18:04,106,"Woodstock Street, Mayfair",27/11/2017 17:54,348,"Grosvenor Square, Mayfair",-0.150481,51.5122,-0.147302,51.5141,2017
89618606,900,12054,30/07/2019 9:21,365,"City Road, Angel",30/07/2019 9:06,101,"Queen Street 1, Bank",-0.0929401,51.5116,-0.100168,51.5303,2019
100862153,2940,18059,18/08/2020 18:34,47,"Warwick Avenue Station, Maida Vale",18/08/2020 17:45,804,"Good's Way, King's Cross",-0.125079,51.5347,-0.183846,51.5233,2020
78792100,1560,14571,02/08/2018 7:19,6,"Broadcasting House, Marylebone",02/08/2018 6:53,231,"Queen's Gate (Central), South Kensington",-0.178732,51.494,-0.144229,51.5181,2018
86480391,1800,14354,02/05/2019 18:40,783,"Monier Road, Hackney Wick",02/05/2019 18:10,246,"Berry Street, Clerkenwell",-0.0999941,51.5229,-0.0216304,51.5403,2019
90374413,1380,1801,21/08/2019 10:51,192,"Wardour Street, Soho",21/08/2019 10:28,295,"Swan Street, The Borough",-0.0927627,51.5003,-0.133202,51.5125,2019
92425411,240,5109,24/10/2019 15:05,332,"Nevern Place, Earl's Court",24/10/2019 15:01,168,"Argyll Road, Kensington",-0.195456,51.5004,-0.194758,51.4933,2019
63627544,2520,10487,02/04/2017 14:31,476,"Stebondale Street, Cubitt Town",02/04/2017 13:49,532,"Jubilee Plaza, Canary Wharf",-0.020068,51.5036,-0.009205,51.4891,2017
76830628,780,12517,15/06/2018 20:22,356,"South Kensington Station, South Kensington",15/06/2018 20:09,605,"Seymour Place, Marylebone",-0.163667,51.5203,-0.173881,51.4944,2018
94820284,600,4634,04/02/2020 22:40,748,"Hertford Road, De Beauvoir Town",04/02/2020 22:30,234,"Liverpool Road (N1 Centre), Angel",-0.106993,51.5345,-0.0792018,51.5373,2020
66419863,480,13451,21/06/2017 21:35,341,"Craven Street, Strand",21/06/2017 21:27,27,"Bouverie Street, Temple",-0.107928,51.5138,-0.126021,51.5081,2017
92604792,1320,4207,31/10/2019 7:58,593,"Northdown Street, King's Cross",31/10/2019 7:36,237,"Dock Street, Wapping",-0.0671764,51.5084,-0.11934,51.5311,2019
91848587,780,14138,03/10/2019 21:49,199,"Great Tower Street, Monument",03/10/2019 21:36,335,"Tavistock Street, Covent Garden",-0.120719,51.512,-0.0829896,51.5105,2019
66552038,840,13825,25/06/2017 13:58,216,"Old Brompton Road, South Kensington",25/06/2017 13:44,36,"De Vere Gardens, Kensington",-0.184981,51.5017,-0.181191,51.4909,2017
76062851,1560,15084,26/05/2018 20:59,192,"Wardour Street, Soho",26/05/2018 20:33,546,"New Fetter Lane, Holborn",-0.107987,51.5174,-0.133202,51.5125,2018
71892515,720,14650,05/12/2017 18:50,4,"St. Chad's Street, King's Cross",05/12/2017 18:38,751,"Newton Street, Covent Garden",-0.120909,51.5161,-0.120974,51.5301,2017
63459803,600,10580,28/03/2017 8:58,359,"Butler Place, Westminster",28/03/2017 8:48,235,"Kennington Road  , Vauxhall",-0.110889,51.4957,-0.135441,51.4978,2017
89773380,360,607,03/08/2019 13:49,479,"Pott Street, Bethnal Green",03/08/2019 13:43,531,"Twig Folly Bridge, Mile End",-0.042744,51.5303,-0.058005,51.5272,2019
71554562,420,10604,22/11/2017 8:58,658,"Ethelburga Estate, Battersea Park",22/11/2017 8:51,821,"Battersea Power Station, Battersea Park",-0.147702349,51.48351589,-0.164786,51.4773,2017
95924733,6060,12564,28/03/2020 18:20,290,"St Mary's Hospital, Paddington",28/03/2020 16:39,279,"North Wharf Road, Paddington",-0.176646,51.5186,-0.1711032,51.518268,2020
101013730,2760,16393,22/08/2020 18:36,552,"Watney Street, Shadwell",22/08/2020 17:50,517,"Ford Road, Old Ford",-0.033085,51.5325,-0.056667,51.5115,2020
92981488,660,15008,14/11/2019 15:50,55,"Finsbury Circus, Liverpool Street",14/11/2019 15:39,803,"Southwark Street, Bankside",-0.098341088,51.50540994,-0.0866855,51.5171,2019
96277582,1260,17332,18/04/2020 15:37,514,"Portman Square, Marylebone",18/04/2020 15:16,8,"Maida Vale, Maida Vale",-0.183486,51.529857,-0.155525,51.5162,2020
63077076,1440,13048,14/03/2017 10:52,583,"Abingdon Green, Westminster",14/03/2017 10:28,798,"Birkenhead Street, King's Cross",-0.122299,51.5302,-0.125978,51.4976,2017
98672988,1380,6992,25/06/2020 8:52,116,"Little Argyll Street, West End",25/06/2020 8:29,267,"Regency Street, Westminster",-0.132225,51.4921,-0.141424,51.5145,2020
75232516,1140,15887,05/05/2018 12:29,352,"Vauxhall Street, Vauxhall",05/05/2018 12:10,116,"Little Argyll Street, West End",-0.141424,51.5145,-0.116625,51.487,2018
70329067,1260,12936,11/10/2017 20:02,383,"Frith Street, Soho",11/10/2017 19:41,27,"Bouverie Street, Temple",-0.107928,51.5138,-0.131214,51.5131,2017
83713047,720,13434,21/01/2019 9:19,119,"Bath Street, St. Luke's",21/01/2019 9:07,75,"Torrens Street, Angel",-0.105481,51.5322,-0.0908478,51.5259,2019
79934922,300,15052,03/09/2018 18:14,252,"Jubilee Gardens, South Bank",03/09/2018 18:09,252,"Jubilee Gardens, South Bank",-0.116542,51.5046,-0.116542,51.5046,2018
94706680,360,15028,31/01/2020 10:04,432,"Exhibition Road Museums, South Kensington",31/01/2020 9:58,345,"Flood Street, Chelsea",-0.166879,51.488,-0.173894,51.497,2020
96290688,9060,10867,19/04/2020 12:48,234,"Liverpool Road (N1 Centre), Angel",19/04/2020 10:17,189,"Claremont Square, Angel",-0.109915,51.5317,-0.106993,51.5345,2020
90985714,1980,5981,07/09/2019 15:14,209,"Denyer Street, Knightsbridge",07/09/2019 14:41,596,"Parson's Green , Parson's Green",-0.199783,51.4728,-0.165101,51.4936,2019
85075643,600,4828,18/03/2019 8:29,717,"Dunston Road , Haggerston",18/03/2019 8:19,251,"Brushfield Street, Liverpool Street",-0.079249,51.5189,-0.0758857,51.5366,2019
89546861,900,7285,28/07/2019 14:23,335,"Tavistock Street, Covent Garden",28/07/2019 14:08,77,"Russell Square Station, Bloomsbury",-0.124122,51.5234,-0.120719,51.512,2019
76997361,960,7801,20/06/2018 14:25,153,"Bayswater Road, Hyde Park",20/06/2018 14:09,313,"Wells Street, Fitzrovia",-0.138073,51.5173,-0.174293,51.5118,2018
69559298,1140,12470,19/09/2017 8:34,393,"Snow Hill, Farringdon",19/09/2017 8:15,574,"Eagle Wharf Road, Hoxton",-0.09315,51.5336,-0.103604,51.5173,2017
83755396,600,12015,22/01/2019 21:36,658,"Ethelburga Estate, Battersea Park",22/01/2019 21:26,356,"South Kensington Station, South Kensington",-0.173881,51.4944,-0.164786,51.4773,2019
70606437,900,12373,20/10/2017 8:20,579,"Queen Street 2, Bank",20/10/2017 8:05,14,"Belgrove Street , King's Cross",-0.123617,51.5299,-0.093051,51.5112,2017
73034149,300,4811,02/02/2018 7:33,356,"South Kensington Station, South Kensington",02/02/2018 7:28,757,"Harcourt Terrace, West Brompton",-0.187405,51.488,-0.173881,51.4944,2018
87554623,840,2555,03/06/2019 18:18,141,"Chapel Place, Marylebone",03/06/2019 18:04,166,"Seville Street, Knightsbridge",-0.159237,51.5019,-0.147204,51.5153,2019
73352460,300,8617,17/02/2018 0:33,178,"Warwick Square, Pimlico",17/02/2018 0:28,268,"Belgrave Road, Victoria",-0.144133,51.4932,-0.141924,51.4899,2018
96048194,480,4644,07/04/2020 9:43,563,"Preston's Road, Cubitt Town",07/04/2020 9:35,523,"Langdon Park, Poplar",-0.013475,51.5155,-0.009152,51.4993,2020
73217954,540,7156,11/02/2018 1:07,477,"Spindrift Avenue, Millwall",11/02/2018 0:58,532,"Jubilee Plaza, Canary Wharf",-0.020068,51.5036,-0.018716,51.4911,2018
75480616,780,9970,11/05/2018 7:30,732,"Duke Street Hill, London Bridge",11/05/2018 7:17,39,"Shoreditch High Street, Shoreditch",-0.0781309,51.5264,-0.087263,51.5063,2018
101071971,2340,10611,24/08/2020 10:35,362,"Royal College Street, Camden Town",24/08/2020 9:56,362,"Royal College Street, Camden Town",-0.133952,51.5363,-0.133952,51.5363,2020
88140263,2340,5481,22/06/2019 5:26,820,"Victory Place, Walworth",22/06/2019 4:47,264,"Tysoe Street, Clerkenwell",-0.109257,51.5264,-0.092486949,51.49266501,2019
73691949,180,3796,06/03/2018 20:56,14,"Belgrove Street , King's Cross",06/03/2018 20:53,433,"Wren Street, Holborn",-0.116279,51.5246,-0.123617,51.5299,2018
64387349,480,13527,25/04/2017 16:28,53,"Grafton Street, Mayfair",25/04/2017 16:20,400,"George Street, Marylebone",-0.154106,51.5177,-0.143495,51.51,2017
76546296,1140,3499,08/06/2018 19:07,28,"Bolsover Street, Fitzrovia",08/06/2018 18:48,804,"Good's Way, King's Cross",-0.125079,51.5347,-0.143614,51.5235,2018
68902809,450,9548,29/08/2017 7:50,87,"Devonshire Square, Liverpool Street",29/08/2017 7:42,539,"Hoxton Station, Hoxton",-0.075901,51.5311,-0.0796846,51.5165,2017
91286021,660,15482,16/09/2019 7:54,581,"New Cavendish Street, Marylebone",16/09/2019 7:43,186,"South Wharf Road, Paddington",-0.175811,51.5173,-0.147983,51.5192,2019
71397116,660,13183,16/11/2017 8:30,373,"Prince Consort Road, Knightsbridge",16/11/2017 8:19,605,"Seymour Place, Marylebone",-0.163667,51.5203,-0.176416,51.4998,2017
83459338,1140,358,10/01/2019 14:53,709,"Montserrat Road , Putney",10/01/2019 14:34,662,"Phene Street, Chelsea",-0.16792,51.485,-0.215551,51.4632,2019
66893068,1140,10121,04/07/2017 8:22,150,"Holy Trinity Brompton, Knightsbridge",04/07/2017 8:03,720,"Star Road, West Kensington",-0.205279,51.4872,-0.168917,51.4971,2017
95242838,4920,3868,23/02/2020 17:14,686,"Beryl Road, Hammersmith",23/02/2020 15:52,686,"Beryl Road, Hammersmith",-0.222456,51.4881,-0.222456,51.4881,2020
96111980,480,8797,10/04/2020 16:21,411,"Walworth Road, Elephant & Castle",10/04/2020 16:13,194,"Hop Exchange, The Borough",-0.0917738,51.5046,-0.0996807,51.4934,2020
61830392,180,5770,21/01/2017 10:41,46,"Nesham Street, Wapping",21/01/2017 10:38,488,"Reardon Street, Wapping",-0.058681,51.5069,-0.06691,51.5071,2017
83678572,540,15128,19/01/2019 14:04,218,"St. Luke's Church, Chelsea",19/01/2019 13:55,128,"Emperor's Gate, South Kensington",-0.185297,51.4954,-0.170194,51.4897,2019
75985409,1020,14435,24/05/2018 18:20,56,"Paddington Street, Marylebone",24/05/2018 18:03,433,"Wren Street, Holborn",-0.116279,51.5246,-0.154701,51.5206,2018
100317496,840,7153,05/08/2020 7:24,732,"Duke Street Hill, London Bridge",05/08/2020 7:10,326,"Graham Street, Angel",-0.0999811,51.5327,-0.087263,51.5063,2020
64848668,360,13460,10/05/2017 17:04,72,"Farringdon Lane, Clerkenwell",10/05/2017 16:58,73,"Old Street Station, St. Luke's",-0.0884862,51.5257,-0.10834,51.5235,2017
62910358,480,10027,08/03/2017 17:29,154,"Waterloo Station 3, Waterloo",08/03/2017 17:21,112,"Stonecutter Street, Holborn",-0.10527,51.5158,-0.113864,51.504,2017
97405465,720,9894,25/05/2020 19:00,596,"Parson's Green , Parson's Green",25/05/2020 18:48,596,"Parson's Green , Parson's Green",-0.199783,51.4728,-0.199783,51.4728,2020
82671386,840,13778,02/12/2018 14:14,710,"Albert Bridge Road, Battersea Park",02/12/2018 14:00,739,"Hortensia Road, West Brompton",-0.185274,51.4818,-0.163348,51.4744,2018
85587979,840,10814,04/04/2019 8:35,228,"St. James's Square, St. James's",04/04/2019 8:21,254,"Chadwell Street, Angel",-0.106408,51.5305,-0.134621,51.5074,2019
64778895,180,482,08/05/2017 17:17,14,"Belgrove Street , King's Cross",08/05/2017 17:14,433,"Wren Street, Holborn",-0.116279,51.5246,-0.123617,51.5299,2017
62795802,1080,12222,03/03/2017 18:28,330,"Eastbourne Mews, Paddington",03/03/2017 18:10,652,"Evesham Street, Avondale",-0.21819,51.5115,-0.179135,51.5164,2017
84726042,180,8092,02/03/2019 15:28,405,"Gloucester Road Station, South Kensington",02/03/2019 15:25,392,"Imperial College, Knightsbridge",-0.179702,51.4994,-0.182671,51.4942,2019
66620965,240,2819,27/06/2017 7:39,762,"Storey's Gate, Westminster",27/06/2017 7:35,148,"Tachbrook Street, Victoria",-0.138365,51.4921,-0.129699,51.5007,2017
64126051,3420,3544,17/04/2017 11:07,667,"Shepherd's Bush Road North, Shepherd's Bush",17/04/2017 10:10,667,"Shepherd's Bush Road North, Shepherd's Bush",-0.222293,51.5016,-0.222293,51.5016,2017
84619549,1560,9228,27/02/2019 7:06,448,"Fisherman's Walk West, Canary Wharf",27/02/2019 6:40,321,"Bermondsey Street, Bermondsey",-0.081608,51.4979,-0.02296,51.5062,2019
88779664,660,424,08/07/2019 8:35,101,"Queen Street 1, Bank",08/07/2019 8:24,374,"Waterloo Station 1, Waterloo",-0.113864,51.504,-0.0929401,51.5116,2019
100513615,2580,10638,09/08/2020 14:54,247,"St. John's Wood Church, The Regent's Park",09/08/2020 14:11,762,"Storey's Gate, Westminster",-0.129699,51.5007,-0.168314,51.5301,2020
85794102,480,863,12/04/2019 3:46,107,"Finsbury Leisure Centre, St. Luke's",12/04/2019 3:38,215,"Moorfields, Moorgate",-0.0882854,51.5191,-0.0963176,51.526,2019
86986552,240,4952,19/05/2019 10:50,619,"Irene Road, Parsons Green",19/05/2019 10:46,636,"South Park, Sands End",-0.193502,51.4671,-0.19701,51.4738,2019
72367510,900,4262,03/01/2018 8:56,104,"Crosswall, Tower",03/01/2018 8:41,480,"Flamborough Street, Limehouse",-0.0389866,51.5129,-0.0771213,51.5116,2018
72555270,480,11141,11/01/2018 23:01,40,"Commercial Street, Shoreditch",11/01/2018 22:53,500,"Ansell House, Stepney",-0.055731,51.5198,-0.0755789,51.5213,2018
80090432,300,3496,07/09/2018 23:03,21,"Hampstead Road (Cartmel), Euston",07/09/2018 22:58,604,"St Martins Close, Camden Town",-0.138535,51.5388,-0.138846,51.5301,2018
91182323,1140,323,13/09/2019 9:20,287,"Bedford Way, Bloomsbury",13/09/2019 9:01,7,"Charlbert Street, St. John's Wood",-0.168074,51.5343,-0.128378,51.5237,2019
63857847,720,2200,08/04/2017 18:11,440,"Kennington Oval, Oval",08/04/2017 17:59,641,"Archbishop's Park, Waterloo",-0.117496,51.4982,-0.113134,51.4831,2017
68694901,1748,7129,23/08/2017 9:16,19,"Taviton Street, Bloomsbury",23/08/2017 8:47,800,"Sopwith Way, Battersea Park",-0.149035,51.4811,-0.131161,51.5251,2017
78767125,3120,14577,01/08/2018 16:22,762,"Storey's Gate, Westminster",01/08/2018 15:30,303,"Albert Gate, Hyde Park",-0.158456,51.503,-0.129699,51.5007,2018
87333114,120,9121,28/05/2019 19:55,686,"Beryl Road, Hammersmith",28/05/2019 19:53,707,"Barons Court Station, West Kensington",-0.215087,51.4902,-0.222456,51.4881,2019
88843338,540,14124,09/07/2019 18:00,138,"Green Street, Mayfair",09/07/2019 17:51,301,"Marylebone Lane, Marylebone",-0.148105,51.5148,-0.157437,51.5123,2019
86455485,480,7805,02/05/2019 7:15,760,"Rossmore Road, Marylebone",02/05/2019 7:07,255,"Clifton Road, Maida Vale",-0.179593,51.5256,-0.163795,51.5253,2019
63798960,780,8973,07/04/2017 9:46,24,"British Museum, Bloomsbury",07/04/2017 9:33,583,"Abingdon Green, Westminster",-0.125978,51.4976,-0.124678,51.5191,2017
87342761,1560,4575,29/05/2019 8:41,303,"Albert Gate, Hyde Park",29/05/2019 8:15,761,"Humbolt Road, Fulham",-0.211861,51.4832,-0.158456,51.503,2019
64064260,4380,2036,14/04/2017 17:32,354,"Northumberland Avenue, Strand",14/04/2017 16:19,303,"Albert Gate, Hyde Park",-0.158456,51.503,-0.123702,51.5068,2017
73589123,420,12270,27/02/2018 18:52,16,"Cartwright Gardens , Bloomsbury",27/02/2018 18:45,357,"Howland Street, Fitzrovia",-0.139016,51.521,-0.125979,51.5264,2018
69851008,1440,2085,27/09/2017 15:22,143,"Pont Street, Knightsbridge",27/09/2017 14:58,680,"Westbridge Road, Battersea",-0.170329,51.4777,-0.161204,51.4969,2017
75822632,240,5402,20/05/2018 16:02,378,"Natural History Museum, South Kensington",20/05/2018 15:58,404,"Palace Gate, Kensington Gardens",-0.1844,51.502,-0.179078,51.4956,2018
67371469,780,3977,15/07/2017 14:48,730,"Bridge Avenue, Hammersmith",15/07/2017 14:35,681,"Bishop's Avenue, Fulham",-0.21475,51.473,-0.229117,51.4921,2017
91465998,1260,13048,20/09/2019 18:25,564,"Somerset House, Strand",20/09/2019 18:04,339,"Risinghill Street, Angel",-0.111781,51.5333,-0.117619,51.5099,2019
83411258,840,401,08/01/2019 18:16,343,"London Zoo Car Park, The Regent's Park",08/01/2019 18:02,106,"Woodstock Street, Mayfair",-0.147302,51.5141,-0.150181,51.5369,2019
78865098,1080,9615,03/08/2018 18:22,329,"Prince Albert Road, The Regent's Park",03/08/2018 18:04,315,"The Tennis Courts, The Regent's Park",-0.153464,51.5254,-0.160854,51.5359,2018
65623271,840,12366,01/06/2017 17:10,653,"Simpson Street, Clapham Junction",01/06/2017 16:56,817,"Riverlight South, Nine Elms",-0.13821289,51.48133503,-0.170704,51.4708,2017
83064801,720,3254,20/12/2018 8:47,640,"Silverthorne Road, Battersea",20/12/2018 8:35,772,"Binfield Road, Stockwell",-0.122832,51.4725,-0.148059,51.4729,2018
72149002,420,4985,18/12/2017 21:37,766,"Ram Street, Wandsworth",18/12/2017 21:30,723,"Stephendale Road, Sands End",-0.190346,51.4682,-0.192166,51.4575,2017
77546074,1440,13496,03/07/2018 8:59,193,"Bankside Mix, Bankside",03/07/2018 8:35,780,"Imperial Wharf Station, Sands End",-0.183165,51.4747,-0.100186,51.5058,2018
101053482,1560,3001,23/08/2020 17:38,552,"Watney Street, Shadwell",23/08/2020 17:12,33,"Central House, Aldgate",-0.0678275,51.5168,-0.056667,51.5115,2020
62213999,1140,9970,07/02/2017 9:27,271,"London Zoo,  The Regent's Park",07/02/2017 9:08,315,"The Tennis Courts, The Regent's Park",-0.153464,51.5254,-0.156285,51.5358,2017
70319939,1320,2700,11/10/2017 17:11,664,"Austin Road, Battersea Park",11/10/2017 16:49,658,"Ethelburga Estate, Battersea Park",-0.164786,51.4773,-0.155443,51.4744,2017
72076919,660,13733,14/12/2017 18:03,154,"Waterloo Station 3, Waterloo",14/12/2017 17:52,427,"Cheapside, Bank",-0.0929403,51.514,-0.113864,51.504,2017
99857086,780,16925,24/07/2020 15:50,229,"Whitehall Place, Strand",24/07/2020 15:37,245,"Grosvenor Road, Pimlico",-0.142207,51.4854,-0.12318,51.5065,2020
76727853,600,3309,13/06/2018 11:10,428,"Exhibition Road, Knightsbridge",13/06/2018 11:00,169,"Porchester Place, Paddington",-0.165164,51.5147,-0.174554,51.4999,2018
72791778,960,15585,23/01/2018 8:39,170,"Hardwick Street, Clerkenwell",23/01/2018 8:23,462,"Bonny Street, Camden Town",-0.138853,51.5416,-0.108068,51.5278,2018
89083763,420,9389,15/07/2019 18:38,431,"Crinan Street, King's Cross",15/07/2019 18:31,22,"Northington Street , Holborn",-0.114079,51.5223,-0.122203,51.5345,2019
97429353,1920,8872,26/05/2020 13:58,60,"Lisson Grove, St. John's Wood",26/05/2020 13:26,457,"Castlehaven Road, Camden Town",-0.145393,51.5421,-0.172191,51.5264,2020
86829174,240,5208,14/05/2019 17:40,55,"Finsbury Circus, Liverpool Street",14/05/2019 17:36,579,"Queen Street 2, Bank",-0.093051,51.5112,-0.0866855,51.5171,2019
70773233,720,4118,25/10/2017 18:01,800,"Sopwith Way, Battersea Park",25/10/2017 17:49,781,"Victoria & Albert Museum, South Kensington",-0.172065,51.4967,-0.149035,51.4811,2017
91792323,540,8737,02/10/2019 9:52,782,"Halford Road, West Kensington",02/10/2019 9:43,38,"Abingdon Villas, Kensington",-0.197246,51.4974,-0.197609,51.4839,2019
68597450,929,6490,19/08/2017 23:58,463,"Thurtle road, Haggerston",19/08/2017 23:43,536,"Queensbridge Road, Haggerston",-0.06992,51.5339,-0.071881,51.5348,2017
82896077,1320,3742,12/12/2018 9:02,33,"Central House, Aldgate",12/12/2018 8:40,311,"Foley Street, Fitzrovia",-0.140486,51.5192,-0.0678275,51.5168,2018
76686444,1320,13745,12/06/2018 10:12,248,"Triangle Car Park, Hyde Park",12/06/2018 9:50,191,"Hyde Park Corner, Hyde Park",-0.153521,51.5031,-0.17028,51.5065,2018
76933159,1260,12322,18/06/2018 21:26,264,"Tysoe Street, Clerkenwell",18/06/2018 21:05,180,"North Audley Street, Mayfair",-0.153645,51.5129,-0.109257,51.5264,2018
91050045,1200,10202,09/09/2019 17:59,667,"Shepherd's Bush Road North, Shepherd's Bush",09/09/2019 17:39,292,"Montpelier Street, Knightsbridge",-0.165472,51.4989,-0.222293,51.5016,2019
61504783,1140,11929,07/01/2017 9:25,248,"Triangle Car Park, Hyde Park",07/01/2017 9:06,279,"North Wharf Road, Paddington",-0.176646,51.5186,-0.17028,51.5065,2017
62758937,420,10614,02/03/2017 10:21,240,"Colombo Street, Southwark",02/03/2017 10:14,194,"Hop Exchange, The Borough",-0.0917738,51.5046,-0.105692,51.5055,2017
61864689,1140,13077,23/01/2017 8:07,18,"Drury Lane, Covent Garden",23/01/2017 7:48,410,"Edgware Road Station, Marylebone",-0.169774,51.52,-0.12222,51.5148,2017
62663783,1260,14645,26/02/2017 11:40,368,"Harriet Street, Knightsbridge",26/02/2017 11:19,270,"Kennington Lane Rail Bridge, Vauxhall",-0.122492,51.4863,-0.159341,51.5002,2017
94874349,660,355,06/02/2020 18:17,14,"Belgrove Street , King's Cross",06/02/2020 18:06,159,"Great Marlborough Street, Soho",-0.137841,51.5146,-0.123617,51.5299,2020
95120663,1440,5583,18/02/2020 8:54,322,"Palissy Street, Shoreditch",18/02/2020 8:30,787,"Timber Lodge, Queen Elizabeth Olympic Park",-0.0146913,51.5468,-0.073955,51.5263,2020
90573425,2880,7707,26/08/2019 21:16,177,"Ashley Place, Victoria",26/08/2019 20:28,307,"Black Lion Gate, Kensington Gardens",-0.187843,51.5099,-0.140948,51.4962,2019
79053235,900,8887,08/08/2018 9:05,428,"Exhibition Road, Knightsbridge",08/08/2018 8:50,176,"Gloucester Terrace, Bayswater",-0.188099,51.5179,-0.174554,51.4999,2018
85907539,540,10285,16/04/2019 11:18,251,"Brushfield Street, Liverpool Street",16/04/2019 11:09,466,"Whiston Road, Haggerston",-0.076341,51.5345,-0.079249,51.5189,2019
100240384,240,11367,03/08/2020 9:23,397,"Devonshire Terrace, Bayswater",03/08/2020 9:19,584,"Ilchester Gardens, Bayswater",-0.19096,51.5124,-0.17977,51.5135,2020
96791597,60,8148,09/05/2020 11:26,487,"Canton Street, Poplar",09/05/2020 11:25,487,"Canton Street, Poplar",-0.025626,51.5118,-0.025626,51.5118,2020
81202695,720,11494,10/10/2018 16:02,4,"St. Chad's Street, King's Cross",10/10/2018 15:50,73,"Old Street Station, St. Luke's",-0.0884862,51.5257,-0.120974,51.5301,2018
78660783,1560,12292,29/07/2018 21:37,383,"Frith Street, Soho",29/07/2018 21:11,95,"Aldersgate Street, Barbican",-0.0973402,51.5208,-0.131214,51.5131,2018
71972304,1140,15522,08/12/2017 17:42,539,"Hoxton Station, Hoxton",08/12/2017 17:23,71,"Newgate Street , St. Paul's",-0.0988509,51.5154,-0.075901,51.5311,2017
70990806,480,11904,01/11/2017 17:43,154,"Waterloo Station 3, Waterloo",01/11/2017 17:35,751,"Newton Street, Covent Garden",-0.120909,51.5161,-0.113864,51.504,2017
70052417,660,10427,03/10/2017 18:38,72,"Farringdon Lane, Clerkenwell",03/10/2017 18:27,32,"Leonard Circus , Shoreditch",-0.0844393,51.5247,-0.10834,51.5235,2017
100500793,1380,16461,09/08/2020 10:14,750,"Culvert Road, Battersea",09/08/2020 9:51,723,"Stephendale Road, Sands End",-0.190346,51.4682,-0.15785,51.4711,2020
67487839,420,2891,18/07/2017 14:01,578,"Hollybush Gardens, Bethnal Green",18/07/2017 13:54,58,"New Inn Yard, Shoreditch",-0.0792481,51.5245,-0.057133,51.5276,2017
67809812,240,10660,27/07/2017 15:09,432,"Exhibition Road Museums, South Kensington",27/07/2017 15:05,150,"Holy Trinity Brompton, Knightsbridge",-0.168917,51.4971,-0.173894,51.497,2017
72539282,360,412,11/01/2018 10:11,542,"Salmon Lane, Limehouse",11/01/2018 10:05,483,"Albert Gardens, Stepney",-0.047784,51.5133,-0.033828,51.5141,2018
77443258,660,5285,30/06/2018 17:59,255,"Clifton Road, Maida Vale",30/06/2018 17:48,153,"Bayswater Road, Hyde Park",-0.174293,51.5118,-0.179593,51.5256,2018
98022579,3000,8363,09/06/2020 18:12,597,"Fulham Park Road, Fulham",09/06/2020 17:22,615,"Finlay Street, Fulham",-0.215896,51.4769,-0.20782,51.4735,2020
65944202,240,8395,10/06/2017 20:30,260,"Broadwick Street, Soho",10/06/2017 20:26,116,"Little Argyll Street, West End",-0.141424,51.5145,-0.135581,51.5137,2017
74239776,2700,5558,01/04/2018 15:20,192,"Wardour Street, Soho",01/04/2018 14:35,428,"Exhibition Road, Knightsbridge",-0.174554,51.4999,-0.133202,51.5125,2018
82269649,660,2767,14/11/2018 18:20,150,"Holy Trinity Brompton, Knightsbridge",14/11/2018 18:09,289,"South Audley Street, Mayfair",-0.151296,51.5092,-0.168917,51.4971,2018
77527902,1080,1640,02/07/2018 18:53,820,"Victory Place, Walworth",02/07/2018 18:35,108,"Abbey Orchard Street, Westminster",-0.132102,51.4981,-0.092486949,51.49266501,2018
91344304,1440,2014,17/09/2019 18:09,300,"Serpentine Car Park, Hyde Park",17/09/2019 17:45,213,"Wellington Arch, Hyde Park",-0.149569,51.5027,-0.17273,51.505,2019
67783187,1140,9296,26/07/2017 18:56,173,"Waterloo Road, South Bank",26/07/2017 18:37,130,"Tower Gardens , Tower",-0.0754595,51.5095,-0.113001,51.5049,2017
74419331,1440,14134,09/04/2018 19:56,220,"Chelsea Green, Chelsea",09/04/2018 19:32,43,"Crawford Street, Marylebone",-0.157184,51.5203,-0.166485,51.4907,2018
88982762,540,4174,12/07/2019 21:21,46,"Nesham Street, Wapping",12/07/2019 21:12,552,"Watney Street, Shadwell",-0.056667,51.5115,-0.06691,51.5071,2019
94730526,1680,12613,01/02/2020 12:27,47,"Warwick Avenue Station, Maida Vale",01/02/2020 11:59,639,"Coomer Place, West Kensington",-0.202039,51.4836,-0.183846,51.5233,2020
92489715,360,5777,27/10/2019 12:26,403,"George Place Mews, Marylebone",27/10/2019 12:20,311,"Foley Street, Fitzrovia",-0.140486,51.5192,-0.15825,51.5169,2019
98674703,840,16360,25/06/2020 9:37,826,"Allington Street, Victoria",25/06/2020 9:23,313,"Wells Street, Fitzrovia",-0.138073,51.5173,-0.142952,51.496858,2020
99802651,1920,2804,23/07/2020 9:35,55,"Finsbury Circus, Liverpool Street",23/07/2020 9:03,821,"Battersea Power Station, Battersea Park",-0.147702349,51.48351589,-0.0866855,51.5171,2020
68542179,228,744,18/08/2017 8:27,445,"Cheshire Street, Bethnal Green",18/08/2017 8:23,507,"Clarkson Street, Bethnal Green",-0.059091,51.5287,-0.065076,51.5239,2017
99374231,2040,3436,12/07/2020 20:07,300,"Serpentine Car Park, Hyde Park",12/07/2020 19:33,733,"Park Lane, Mayfair",-0.150817,51.5054,-0.17273,51.505,2020
91141536,1320,11980,12/09/2019 8:52,421,"Southwark Station 2, Southwark",12/09/2019 8:30,625,"Queen's Circus, Battersea Park",-0.149552,51.4776,-0.105312,51.504,2019
77378236,60,12425,29/06/2018 8:41,281,"Smith Square, Westminster",29/06/2018 8:40,281,"Smith Square, Westminster",-0.127575,51.4958,-0.127575,51.4958,2018
88365605,240,6548,27/06/2019 19:49,39,"Shoreditch High Street, Shoreditch",27/06/2019 19:45,319,"Baldwin Street, St. Luke's",-0.0885428,51.527,-0.0781309,51.5264,2019
88105971,480,1406,21/06/2019 8:50,680,"Westbridge Road, Battersea",21/06/2019 8:42,609,"Sugden Road, Clapham",-0.157788,51.4651,-0.170329,51.4777,2019
99376303,1860,11496,12/07/2020 20:40,303,"Albert Gate, Hyde Park",12/07/2020 20:09,307,"Black Lion Gate, Kensington Gardens",-0.187843,51.5099,-0.158456,51.503,2020
94982326,960,8994,11/02/2020 18:04,102,"Jewry Street, Aldgate",11/02/2020 17:48,358,"High Holborn , Covent Garden",-0.124332,51.5164,-0.0767934,51.5134,2020
78893661,960,3742,04/08/2018 14:30,233,"Pall Mall East, West End",04/08/2018 14:14,541,"Green Park Station, Mayfair",-0.142844,51.5066,-0.1307,51.5078,2018
76907957,180,9826,18/06/2018 10:54,177,"Ashley Place, Victoria",18/06/2018 10:51,118,"Rochester Row, Westminster",-0.135478,51.4958,-0.140948,51.4962,2018
81900916,840,10046,01/11/2018 17:21,25,"Doric Way , Somers Town",01/11/2018 17:07,78,"Sadlers Sports Centre, Finsbury",-0.0994895,51.5249,-0.13225,51.5288,2018
101170422,1440,13078,27/08/2020 6:58,547,"East India DLR, Blackwall",27/08/2020 6:34,547,"East India DLR, Blackwall",-0.002275,51.5095,-0.002275,51.5095,2020
89957346,420,13055,08/08/2019 9:22,160,"Waterloo Place, St. James's",08/08/2019 9:15,281,"Smith Square, Westminster",-0.127575,51.4958,-0.131774,51.5066,2019
93453403,900,159,03/12/2019 18:55,821,"Battersea Power Station, Battersea Park",03/12/2019 18:40,221,"Horseferry Road, Westminster",-0.130459,51.4948,-0.147702349,51.48351589,2019
65974167,4920,13978,11/06/2017 18:57,693,"Felsham Road, Putney",11/06/2017 17:35,693,"Felsham Road, Putney",-0.215619,51.4648,-0.215619,51.4648,2017
74488683,540,8948,12/04/2018 14:50,33,"Central House, Aldgate",12/04/2018 14:41,491,"Queen Mary's, Mile End",-0.041378,51.5225,-0.0678275,51.5168,2018
85823797,1260,14100,13/04/2019 9:25,213,"Wellington Arch, Hyde Park",13/04/2019 9:04,43,"Crawford Street, Marylebone",-0.157184,51.5203,-0.149569,51.5027,2019
92128615,780,15916,14/10/2019 10:56,173,"Waterloo Road, South Bank",14/10/2019 10:43,314,"Tyers Gate, Bermondsey",-0.0831594,51.5009,-0.113001,51.5049,2019
79421380,360,9766,19/08/2018 7:27,827,"Cranmer Road, Stockwell",19/08/2018 7:21,144,"Kennington Cross, Kennington",-0.111436,51.4889,-0.111481,51.479593,2018
79055128,720,8937,08/08/2018 9:30,380,"Stanhope Gate, Mayfair",08/08/2018 9:18,395,"Cadogan Gardens, Chelsea",-0.159919,51.4925,-0.150667,51.5069,2018
87679221,1080,12343,07/06/2019 7:47,789,"Podium, Queen Elizabeth Olympic Park",07/06/2019 7:29,487,"Canton Street, Poplar",-0.025626,51.5118,-0.0118895,51.5387,2019
77658159,240,2195,05/07/2018 17:43,159,"Great Marlborough Street, Soho",05/07/2018 17:39,106,"Woodstock Street, Mayfair",-0.147302,51.5141,-0.137841,51.5146,2018
90566462,3720,1947,26/08/2019 18:40,747,"Ormonde Gate, Chelsea",26/08/2019 17:38,747,"Ormonde Gate, Chelsea",-0.161765,51.488,-0.161765,51.488,2019
83275087,1200,3733,02/01/2019 9:27,433,"Wren Street, Holborn",02/01/2019 9:07,374,"Waterloo Station 1, Waterloo",-0.113864,51.504,-0.116279,51.5246,2019
96255672,1680,5624,16/04/2020 21:50,665,"Smugglers Way, Wandsworth",16/04/2020 21:22,708,"Disraeli Road, Putney",-0.216146,51.4616,-0.191723,51.4611,2020
64764444,240,13628,08/05/2017 8:29,621,"Wandsworth Town Station, Wandsworth",08/05/2017 8:25,685,"Osiers Road, Wandsworth",-0.198735,51.4607,-0.187427,51.4609,2017
98478915,1080,16471,21/06/2020 11:50,313,"Wells Street, Fitzrovia",21/06/2020 11:32,7,"Charlbert Street, St. John's Wood",-0.168074,51.5343,-0.138073,51.5173,2020
80569125,600,4059,21/09/2018 9:26,109,"Soho Square , Soho",21/09/2018 9:16,797,"Ossulston Street, Somers Town",-0.128281945,51.52930361,-0.132329,51.5156,2018
79265792,1380,14538,14/08/2018 18:31,446,"York Hall, Bethnal Green",14/08/2018 18:08,427,"Cheapside, Bank",-0.0929403,51.514,-0.055894,51.5289,2018
82550644,1260,13038,27/11/2018 8:32,432,"Exhibition Road Museums, South Kensington",27/11/2018 8:11,624,"Courland Grove, Wandsworth Road",-0.132103,51.4729,-0.173894,51.497,2018
99808532,1140,14694,23/07/2020 13:05,379,"Turquoise Island, Notting Hill",23/07/2020 12:46,605,"Seymour Place, Marylebone",-0.163667,51.5203,-0.200838,51.5143,2020
80288167,1620,7989,13/09/2018 17:45,153,"Bayswater Road, Hyde Park",13/09/2018 17:18,27,"Bouverie Street, Temple",-0.107928,51.5138,-0.174293,51.5118,2018
68312373,358,12875,11/08/2017 18:48,404,"Palace Gate, Kensington Gardens",11/08/2017 18:42,307,"Black Lion Gate, Kensington Gardens",-0.187843,51.5099,-0.1844,51.502,2017
71580232,780,5720,23/11/2017 7:26,331,"Bunhill Row, Moorgate",23/11/2017 7:13,154,"Waterloo Station 3, Waterloo",-0.113864,51.504,-0.0898879,51.5209,2017
96086422,420,16599,09/04/2020 16:40,282,"Royal London Hospital, Whitechapel",09/04/2020 16:33,491,"Queen Mary's, Mile End",-0.041378,51.5225,-0.0596421,51.5191,2020
68662040,498,11873,22/08/2017 9:40,428,"Exhibition Road, Knightsbridge",22/08/2017 9:32,142,"West Cromwell Road, Earl's Court",-0.198287,51.4937,-0.174554,51.4999,2017
62048985,1140,9300,31/01/2017 8:26,207,"Grosvenor Crescent, Belgravia",31/01/2017 8:07,543,"Lansdowne Walk, Ladbroke Grove",-0.204666,51.5096,-0.153195,51.5014,2017
72658086,1080,6880,16/01/2018 19:02,695,"Islington Green, Angel",16/01/2018 18:44,357,"Howland Street, Fitzrovia",-0.139016,51.521,-0.102758,51.5364,2018
68580457,1429,2379,19/08/2017 14:52,512,"Pritchard's Road, Bethnal Green",19/08/2017 14:28,202,"Leman Street, Aldgate",-0.069542,51.5124,-0.06142,51.5321,2017
98725681,480,17138,26/06/2020 7:56,580,"Doddington Grove, Kennington",26/06/2020 7:48,156,"New Kent Road, The Borough",-0.0929212,51.4944,-0.102996,51.4869,2020
86912048,3900,2390,16/05/2019 19:17,57,"Guilford Street , Bloomsbury",16/05/2019 18:12,26,"Ampton Street , Clerkenwell",-0.118295,51.5273,-0.120203,51.5233,2019
95941981,420,17157,30/03/2020 21:39,489,"Christian Street, Whitechapel",30/03/2020 21:32,587,"Monument Street, Monument",-0.08497,51.5096,-0.064094,51.5131,2020
99008632,1080,203,03/07/2020 16:10,831,"St John's Crescent, Brixton",03/07/2020 15:52,80,"Webber Street , Southwark",-0.102091,51.5007,-0.113184,51.466231,2020
76215059,1200,6455,31/05/2018 13:38,64,"William IV Street, Strand",31/05/2018 13:18,428,"Exhibition Road, Knightsbridge",-0.174554,51.4999,-0.124749,51.5095,2018
100122229,600,3434,31/07/2020 18:21,836,"York Way, Kings Cross",31/07/2020 18:11,98,"Hampstead Road, Euston",-0.138231,51.5255,-0.125442,51.541596,2020
62540553,1980,14675,21/02/2017 9:08,529,"Manresa Road, Chelsea",21/02/2017 8:35,609,"Sugden Road, Clapham",-0.157788,51.4651,-0.170983,51.4869,2017
65188479,480,3756,21/05/2017 17:16,284,"Lambeth North Station, Waterloo",21/05/2017 17:08,194,"Hop Exchange, The Borough",-0.0917738,51.5046,-0.112031,51.4991,2017
76393698,2100,10526,05/06/2018 1:00,674,"Carnegie Street, King's Cross",05/06/2018 0:25,20,"Drummond Street , Euston",-0.135273,51.5277,-0.116191,51.5355,2018
95950625,180,16667,31/03/2020 19:25,71,"Newgate Street , St. Paul's",31/03/2020 19:22,393,"Snow Hill, Farringdon",-0.103604,51.5173,-0.0988509,51.5154,2020
75209151,2820,471,04/05/2018 17:44,191,"Hyde Park Corner, Hyde Park",04/05/2018 16:57,541,"Green Park Station, Mayfair",-0.142844,51.5066,-0.153521,51.5031,2018
74942610,420,9265,24/04/2018 20:40,274,"Warwick Road, Olympia",24/04/2018 20:33,37,"Penywern Road, Earl's Court",-0.192369,51.4916,-0.205284,51.4967,2018
73194261,1080,10359,09/02/2018 11:52,152,"Hampton Street, Walworth",09/02/2018 11:34,83,"Panton Street, West End",-0.131511,51.5096,-0.101537,51.4922,2018
98891840,4800,9404,29/06/2020 20:39,683,"Dorothy Road, Clapham Junction",29/06/2020 19:19,186,"South Wharf Road, Paddington",-0.175811,51.5173,-0.163751,51.4651,2020
69619134,540,3582,20/09/2017 18:38,695,"Islington Green, Angel",20/09/2017 18:29,72,"Farringdon Lane, Clerkenwell",-0.10834,51.5235,-0.102758,51.5364,2017
100178050,1800,9694,01/08/2020 19:26,482,"Exhibition Road Museums 2, South Kensington",01/08/2020 18:56,7,"Charlbert Street, St. John's Wood",-0.168074,51.5343,-0.02377,51.5098,2020
91996842,540,5915,09/10/2019 7:05,546,"New Fetter Lane, Holborn",09/10/2019 6:56,818,"Westminster Pier, Westminster",-0.12382352,51.501513,-0.107987,51.5174,2019
83790047,840,4543,24/01/2019 9:20,619,"Irene Road, Parsons Green",24/01/2019 9:06,642,"Fawcett Close, Battersea",-0.174486,51.4692,-0.19701,51.4738,2019
99840631,240,8368,24/07/2020 7:12,673,"Hibbert Street, Battersea",24/07/2020 7:08,638,"Falcon Road, Clapham Junction",-0.169821,51.4666,-0.180389,51.4652,2020
95676192,240,16661,13/03/2020 7:51,619,"Irene Road, Parsons Green",13/03/2020 7:47,636,"South Park, Sands End",-0.193502,51.4671,-0.19701,51.4738,2020
82746049,1320,6600,05/12/2018 10:49,357,"Howland Street, Fitzrovia",05/12/2018 10:27,397,"Devonshire Terrace, Bayswater",-0.17977,51.5135,-0.139016,51.521,2018
97090031,600,2710,18/05/2020 20:36,648,"Peterborough Road, Sands End",18/05/2020 20:26,691,"Erin Close, Walham Green",-0.195777,51.4795,-0.196275,51.469,2020
97534528,780,8463,28/05/2020 20:10,51,"Finsbury Library , Finsbury",28/05/2020 19:57,239,"Warren Street Station, Euston",-0.138019,51.5244,-0.104298,51.5267,2020
61546503,2040,13376,09/01/2017 9:42,109,"Soho Square , Soho",09/01/2017 9:08,738,"Imperial Road, Sands End",-0.187279,51.4751,-0.132329,51.5156,2017
69673009,1020,3775,22/09/2017 12:43,307,"Black Lion Gate, Kensington Gardens",22/09/2017 12:26,191,"Hyde Park Corner, Hyde Park",-0.153521,51.5031,-0.187843,51.5099,2017
95961971,900,7472,02/04/2020 8:37,569,"Pitfield Street Central, Hoxton",02/04/2020 8:22,444,"Bethnal Green Garden, Bethnal Green",-0.055312,51.5257,-0.08299,51.5321,2020
70645617,660,9968,21/10/2017 14:02,32,"Leonard Circus , Shoreditch",21/10/2017 13:51,399,"Brick Lane Market, Shoreditch",-0.071654,51.5226,-0.0844393,51.5247,2017
72116771,300,5487,16/12/2017 20:46,293,"Kensington Olympia Station, Olympia",16/12/2017 20:41,142,"West Cromwell Road, Earl's Court",-0.198287,51.4937,-0.209494,51.4982,2017
94440744,1440,8700,21/01/2020 7:16,665,"Smugglers Way, Wandsworth",21/01/2020 6:52,682,"Crisp Road, Hammersmith",-0.226606,51.4881,-0.191723,51.4611,2020
62760389,540,14173,02/03/2017 12:00,529,"Manresa Road, Chelsea",02/03/2017 11:51,737,"Fulham Broadway, Walham Green",-0.194117,51.4799,-0.170983,51.4869,2017
64920497,540,5290,12/05/2017 17:16,136,"Queen Victoria Street, St. Paul's",12/05/2017 17:07,41,"Sun Street, Liverpool Street",-0.0839112,51.52,-0.0974417,51.512,2017
91979719,1620,3431,08/10/2019 15:08,204,"Margery Street, Clerkenwell",08/10/2019 14:41,7,"Charlbert Street, St. John's Wood",-0.168074,51.5343,-0.112433,51.5266,2019
95492344,660,9339,05/03/2020 16:28,14,"Belgrove Street , King's Cross",05/03/2020 16:17,357,"Howland Street, Fitzrovia",-0.139016,51.521,-0.123617,51.5299,2020
86387929,3000,1972,30/04/2019 11:36,762,"Storey's Gate, Westminster",30/04/2019 10:46,622,"Lansdowne Road, Ladbroke Grove",-0.205536,51.5075,-0.129699,51.5007,2019
66906150,420,12989,04/07/2017 13:13,611,"Princedale Road , Holland Park",04/07/2017 13:06,442,"Walmer Road, Avondale",-0.211358,51.5101,-0.208487,51.5065,2017
81568506,1560,7673,21/10/2018 15:04,622,"Lansdowne Road, Ladbroke Grove",21/10/2018 14:38,124,"Eaton Square, Belgravia",-0.150905,51.4965,-0.205536,51.5075,2018
67342992,420,13679,14/07/2017 17:25,335,"Tavistock Street, Covent Garden",14/07/2017 17:18,68,"Theobald's Road , Holborn",-0.116688,51.5206,-0.120719,51.512,2017
70259640,180,13087,09/10/2017 20:42,401,"Columbia Road, Shoreditch",09/10/2017 20:39,132,"Bethnal Green Road, Shoreditch",-0.0747549,51.5236,-0.075375,51.5282,2017
92928107,540,4673,12/11/2019 18:24,2,"Phillimore Gardens, Kensington",12/11/2019 18:15,651,"Thorndike Close, West Chelsea",-0.183854,51.4809,-0.197574,51.4996,2019
67099712,1260,6848,08/07/2017 16:29,71,"Newgate Street , St. Paul's",08/07/2017 16:08,93,"Cloudesley Road, Angel",-0.109025,51.5344,-0.0988509,51.5154,2017
65985413,540,13767,12/06/2017 7:23,290,"Winsland Street, Paddington",12/06/2017 7:14,151,"Chepstow Villas, Notting Hill",-0.201555,51.5121,-0.1711032,51.518268,2017
85983911,1200,12750,18/04/2019 14:38,341,"Craven Street, Strand",18/04/2019 14:18,5,"Sedding Street, Sloane Square",-0.156876,51.4931,-0.126021,51.5081,2019
92642662,300,2268,01/11/2019 10:14,404,"Palace Gate, Kensington Gardens",01/11/2019 10:09,277,"Kensington Church Street, Kensington",-0.191496,51.5032,-0.1844,51.502,2019
80569171,300,15983,21/09/2018 9:21,682,"Crisp Road, Hammersmith",21/09/2018 9:16,707,"Barons Court Station, West Kensington",-0.215087,51.4902,-0.226606,51.4881,2018
101194820,1020,17714,28/08/2020 7:18,817,"Riverlight South, Nine Elms",28/08/2020 7:01,826,"Allington Street, Victoria",-0.142952,51.496858,-0.13821289,51.48133503,2020
62632803,1620,14612,24/02/2017 15:47,571,"Westfield Southern Terrace ,Shepherd's Bush",24/02/2017 15:20,6,"Broadcasting House, Marylebone",-0.144229,51.5181,-0.218337,51.5063,2017
93341737,360,12680,29/11/2019 8:24,633,"Vereker Road, West Kensington",29/11/2019 8:18,616,"Aintree Street, Fulham",-0.209973,51.481,-0.209379,51.4896,2019
65430871,840,12296,27/05/2017 12:51,234,"Liverpool Road (N1 Centre), Angel",27/05/2017 12:37,749,"Haggerston Road, Haggerston ",-0.0742847,51.5393,-0.106993,51.5345,2017
68805731,592,14741,26/08/2017 13:14,221,"Horseferry Road, Westminster",26/08/2017 13:04,773,"Tallis Street, Temple",-0.107349,51.5119,-0.130459,51.4948,2017
62859321,180,1066,06/03/2017 18:54,668,"Ravenscourt Park Station, Hammersmith",06/03/2017 18:51,730,"Bridge Avenue, Hammersmith",-0.229117,51.4921,-0.23677,51.4942,2017
87098356,960,14591,22/05/2019 9:12,115,"Braham Street, Aldgate",22/05/2019 8:56,564,"Somerset House, Strand",-0.117619,51.5099,-0.0735377,51.5142,2019
99502124,2940,10427,16/07/2020 14:04,721,"Wendon Street, Old Ford",16/07/2020 13:15,459,"Gunmakers Lane, Old Ford",-0.03338,51.5352,-0.0262627,51.536,2020
92566668,1500,6792,29/10/2019 20:21,227,"Great Percy Street, Clerkenwell",29/10/2019 19:56,260,"Broadwick Street, Soho",-0.135581,51.5137,-0.115481,51.5289,2019
86090249,1080,3605,21/04/2019 12:07,393,"Snow Hill, Farringdon",21/04/2019 11:49,717,"Dunston Road , Haggerston",-0.0758857,51.5366,-0.103604,51.5173,2019
78150798,240,13481,17/07/2018 13:50,558,"Page Street, Westminster",17/07/2018 13:46,294,"St. George's Square, Pimlico",-0.135636,51.4882,-0.127554,51.494,2018
67833379,1020,6480,28/07/2017 9:13,167,"Eccleston Place, Victoria",28/07/2017 8:56,290,"Winsland Street, Paddington",-0.1711032,51.518268,-0.147624,51.494,2017
71113966,600,1057,06/11/2017 5:27,260,"Broadwick Street, Soho",06/11/2017 5:17,243,"Gloucester Street, Pimlico",-0.139625,51.491,-0.135581,51.5137,2017
66212802,240,10771,17/06/2017 12:46,405,"Gloucester Road Station, South Kensington",17/06/2017 12:42,392,"Imperial College, Knightsbridge",-0.179702,51.4994,-0.182671,51.4942,2017
68554638,5486,644,18/08/2017 17:24,85,"Tanner Street, Bermondsey",18/08/2017 15:52,587,"Monument Street, Monument",-0.08497,51.5096,-0.0786004,51.5006,2017
62176419,720,4188,05/02/2017 17:07,109,"Soho Square , Soho",05/02/2017 16:55,99,"Old Quebec Street, Marylebone",-0.158264,51.5146,-0.132329,51.5156,2017
80059736,360,15416,07/09/2018 8:23,492,"The Green Bridge, Mile End",07/09/2018 8:17,499,"Furze Green, Bow",-0.021345,51.5193,-0.03562,51.5247,2018
87631436,660,8297,05/06/2019 19:24,18,"Drury Lane, Covent Garden",05/06/2019 19:13,230,"Poured Lines, Bankside",-0.103137,51.5067,-0.12222,51.5148,2019
98812389,600,6173,27/06/2020 20:28,337,"Pembridge Villas, Notting Hill",27/06/2020 20:18,47,"Warwick Avenue Station, Maida Vale",-0.183846,51.5233,-0.197525,51.5111,2020
87239602,420,9901,25/05/2019 19:46,610,"Danvers Street, West Chelsea",25/05/2019 19:39,405,"Gloucester Road Station, South Kensington",-0.182671,51.4942,-0.172078,51.4826,2019
98541249,1500,15206,22/06/2020 16:41,104,"Crosswall, Tower",22/06/2020 16:16,138,"Green Street, Mayfair",-0.157437,51.5123,-0.0771213,51.5116,2020
62243488,480,14821,08/02/2017 9:16,244,"Earnshaw Street , Covent Garden",08/02/2017 9:08,374,"Waterloo Station 1, Waterloo",-0.113864,51.504,-0.128585,51.5161,2017
67385420,2760,893,15/07/2017 20:59,379,"Turquoise Island, Notting Hill",15/07/2017 20:13,742,"Blenheim Crescent, Ladbroke Grove",-0.208565,51.5151,-0.200838,51.5143,2017
97508441,840,14581,28/05/2020 13:26,55,"Finsbury Circus, Liverpool Street",28/05/2020 13:12,792,"Blackfriars Road, Southwark",-0.104541,51.5055,-0.0866855,51.5171,2020
89117893,180,443,16/07/2019 16:39,194,"Hop Exchange, The Borough",16/07/2019 16:36,193,"Bankside Mix, Bankside",-0.100186,51.5058,-0.0917738,51.5046,2019
91500435,1740,2697,21/09/2019 17:28,29,"Hereford Road, Bayswater",21/09/2019 16:59,160,"Waterloo Place, St. James's",-0.131774,51.5066,-0.193487,51.5137,2019
88210636,360,558,24/06/2019 7:00,228,"St. James's Square, St. James's",24/06/2019 6:54,826,"Allington Street, Victoria",-0.142952,51.496858,-0.134621,51.5074,2019
87249762,660,14038,26/05/2019 10:57,219,"Bramham Gardens, Earl's Court",26/05/2019 10:46,671,"Parsons Green Station, Parsons Green",-0.201968,51.4751,-0.190394,51.4902,2019
99525839,240,13838,16/07/2020 21:26,151,"Chepstow Villas, Notting Hill",16/07/2020 21:22,224,"Queensway, Kensington Gardens",-0.1874024,51.51031,-0.201555,51.5121,2020
80414404,720,11049,17/09/2018 9:00,15,"Great Russell Street, Bloomsbury",17/09/2018 8:48,272,"Baylis Road, Waterloo",-0.110699,51.5014,-0.127854,51.5177,2018
,,,,,,,,,,,,,
,,,,,,,,,,,,,
,,,,,,,,,,,,,
,,,,,,,,,,,,,
,,,,,,,,,,,,,
,,,,,,,,,,,,,
,,,,,,,,,,,,,
,,,,,,,,,,,,,
,,,,,,,,,,,,,
,,,,,,,,,,,,,
,,,,,,,,,,,,,
,,,,,,,,,,,,,
,,,,,,,,,,,,,
,,,,,,,,,,,,,
,,,,,,,,,,,,,
,,,,,,,,,,,,,
,,,,,,,,,,,,,
,,,,,,,,,,,,,
,,,,,,,,,,,,,
,,,,,,,,,,,,,
,,,,,,,,,,,,,
,,,,,,,,,,,,,
,,,,,,,,,,,,,
,,,,,,,,,,,,,
,,,,,,,,,,,,,
,,,,,,,,,,,,,
,,,,,,,,,,,,,
,,,,,,,,,,,,,
,,,,,,,,,,,,,
,,,,,,,,,,,,,
,,,,,,,,,,,,,
,,,,,,,,,,,,,
,,,,,,,,,,,,,
,,,,,,,,,,,,,
,,,,,,,,,,,,,
,,,,,,,,,,,,,
,,,,,,,,,,,,,
,,,,,,,,,,,,,
,,,,,,,,,,,,,
,,,,,,,,,,,,,
,,,,,,,,,,,,,
,,,,,,,,,,,,,
,,,,,,,,,,,,,
,,,,,,,,,,,,,
,,,,,,,,,,,,,
,,,,,,,,,,,,,
,,,,,,,,,,,,,
,,,,,,,,,,,,,
,,,,,,,,,,,,,
,,,,,,,,,,,,,
,,,,,,,,,,,,,
,,,,,,,,,,,,,
,,,,,,,,,,,,,
,,,,,,,,,,,,,
,,,,,,,,,,,,,
,,,,,,,,,,,,,
,,,,,,,,,,,,,
,,,,,,,,,,,,,
,,,,,,,,,,,,,
,,,,,,,,,,,,,
,,,,,,,,,,,,,
,,,,,,,,,,,,,
,,,,,,,,,,,,,
,,,,,,,,,,,,,
,,,,,,,,,,,,,
,,,,,,,,,,,,,
,,,,,,,,,,,,,
,,,,,,,,,,,,,
,,,,,,,,,,,,,
,,,,,,,,,,,,,
,,,,,,,,,,,,,
,,,,,,,,,,,,,
,,,,,,,,,,,,,
,,,,,,,,,,,,,
,,,,,,,,,,,,,
,,,,,,,,,,,,,
,,,,,,,,,,,,,
,,,,,,,,,,,,,
,,,,,,,,,,,,,
,,,,,,,,,,,,,
,,,,,,,,,,,,,
,,,,,,,,,,,,,
,,,,,,,,,,,,,
,,,,,,,,,,,,,
,,,,,,,,,,,,,
,,,,,,,,,,,,,
,,,,,,,,,,,,,
,,,,,,,,,,,,,
,,,,,,,,,,,,,
,,,,,,,,,,,,,
,,,,,,,,,,,,,
,,,,,,,,,,,,,
,,,,,,,,,,,,,
,,,,,,,,,,,,,
,,,,,,,,,,,,,
,,,,,,,,,,,,,
,,,,,,,,,,,,,
,,,,,,,,,,,,,
,,,,,,,,,,,,,
,,,,,,,,,,,,,
